{
"type": "FeatureCollection",
"name": "trolebus_paradas",
"crs": { "type": "name", "properties": { "name": "urn:ogc:def:crs:OGC:1.3:CRS84" } },
"features": [
{ "type": "Feature", "properties": { "CVE_EST": "TROLE05R55", "circuito": "1 y 2", "SISTEMA": "STE Trolebús", "NOMBRE": "T. San Felipe de Jesús", "TIPO": "Terminal", "LINEA": "05", "ALCALDIAS": "Gustavo A. Madero", "Ramp_s_rue": null }, "geometry": { "type": "Point", "coordinates": [ -99.065083, 19.49606, 0.0 ] } },
{ "type": "Feature", "properties": { "CVE_EST": "TROLE05I49", "circuito": "1 y 2", "SISTEMA": "STE Trolebús", "NOMBRE": "Tres Culturas", "TIPO": "Intermedia", "LINEA": "05", "ALCALDIAS": "Cuauhtémoc", "Ramp_s_rue": null }, "geometry": { "type": "Point", "coordinates": [ -99.132760318352098, 19.450908651907724, 0.0 ] } },
{ "type": "Feature", "properties": { "CVE_EST": "TROLE05I50", "circuito": "1 y 2", "SISTEMA": "STE Trolebús", "NOMBRE": "Glorieta Cuitláhuac I", "TIPO": "Intermedia", "LINEA": "05", "ALCALDIAS": "Cuauhtémoc", "Ramp_s_rue": null }, "geometry": { "type": "Point", "coordinates": [ -99.133913428204551, 19.449469820635329, 0.0 ] } },
{ "type": "Feature", "properties": { "CVE_EST": "TROLE05I51", "circuito": "1 y 2", "SISTEMA": "STE Trolebús", "NOMBRE": "Glorieta Cuitláhuac", "TIPO": "Intermedia", "LINEA": "05", "ALCALDIAS": "Cuauhtémoc", "Ramp_s_rue": null }, "geometry": { "type": "Point", "coordinates": [ -99.135760506093447, 19.447434580720337, 0.0 ] } },
{ "type": "Feature", "properties": { "CVE_EST": "TROLE05I53", "circuito": "1 y 2", "SISTEMA": "STE Trolebús", "NOMBRE": "Glorieta Violeta", "TIPO": "Intermedia", "LINEA": "05", "ALCALDIAS": "Cuauhtémoc", "Ramp_s_rue": null }, "geometry": { "type": "Point", "coordinates": [ -99.142336426800242, 19.441578080725421, 0.0 ] } },
{ "type": "Feature", "properties": { "CVE_EST": "TROLE05R03", "circuito": "1 y 2", "SISTEMA": "STE Trolebús", "NOMBRE": "Glorieta Violeta", "TIPO": "Intermedia", "LINEA": "05", "ALCALDIAS": "Cuauhtémoc", "Ramp_s_rue": null }, "geometry": { "type": "Point", "coordinates": [ -99.14403344329655, 19.43959274567489, 0.0 ] } },
{ "type": "Feature", "properties": { "CVE_EST": "TROLE05R63", "circuito": "1 y 2", "SISTEMA": "STE Trolebús", "NOMBRE": "Metro Hidalgo", "TIPO": "Intermedia", "LINEA": "05", "ALCALDIAS": "Cuauhtémoc", "Ramp_s_rue": null }, "geometry": { "type": "Point", "coordinates": [ -99.146154853726102, 19.43774578026034, 0.0 ] } },
{ "type": "Feature", "properties": { "CVE_EST": "TROLE05I11", "circuito": "1 y 2", "SISTEMA": "STE Trolebús", "NOMBRE": "Camino de la Unión", "TIPO": "Intermedia", "LINEA": "05", "ALCALDIAS": "Gustavo A. Madero", "Ramp_s_rue": null }, "geometry": { "type": "Point", "coordinates": [ -99.076248, 19.48272, 0.0 ] } },
{ "type": "Feature", "properties": { "CVE_EST": "TROLE05I33", "circuito": "1 y 2", "SISTEMA": "STE Trolebús", "NOMBRE": "Zaragoza", "TIPO": "Intermedia", "LINEA": "05", "ALCALDIAS": "Gustavo A. Madero", "Ramp_s_rue": null }, "geometry": { "type": "Point", "coordinates": [ -99.117693, 19.488203, 0.0 ] } },
{ "type": "Feature", "properties": { "CVE_EST": "TROLE05I34", "circuito": "1 y 2", "SISTEMA": "STE Trolebús", "NOMBRE": "Av. Montevideo", "TIPO": "Intermedia", "LINEA": "05", "ALCALDIAS": "Gustavo A. Madero", "Ramp_s_rue": null }, "geometry": { "type": "Point", "coordinates": [ -99.118448, 19.486033, 0.0 ] } },
{ "type": "Feature", "properties": { "CVE_EST": "TROLE05I36", "circuito": "2", "SISTEMA": "STE Trolebús", "NOMBRE": "Ricarte", "TIPO": "Intermedia", "LINEA": "05", "ALCALDIAS": "Gustavo A. Madero", "Ramp_s_rue": null }, "geometry": { "type": "Point", "coordinates": [ -99.119939, 19.482005, 0.0 ] } },
{ "type": "Feature", "properties": { "CVE_EST": "TROLE05I37", "circuito": "2", "SISTEMA": "STE Trolebús", "NOMBRE": "Fortuna", "TIPO": "Intermedia", "LINEA": "05", "ALCALDIAS": "Gustavo A. Madero", "Ramp_s_rue": null }, "geometry": { "type": "Point", "coordinates": [ -99.120712, 19.479906, 0.0 ] } },
{ "type": "Feature", "properties": { "CVE_EST": "TROLE05I38", "circuito": "2", "SISTEMA": "STE Trolebús", "NOMBRE": "Euzcaro", "TIPO": "Intermedia", "LINEA": "05", "ALCALDIAS": "Gustavo A. Madero", "Ramp_s_rue": null }, "geometry": { "type": "Point", "coordinates": [ -99.121154, 19.478807, 0.0 ] } },
{ "type": "Feature", "properties": { "CVE_EST": "TROLE05I39", "circuito": "2", "SISTEMA": "STE Trolebús", "NOMBRE": "Río Blanco", "TIPO": "Intermedia", "LINEA": "05", "ALCALDIAS": "Gustavo A. Madero", "Ramp_s_rue": null }, "geometry": { "type": "Point", "coordinates": [ -99.121732, 19.477239, 0.0 ] } },
{ "type": "Feature", "properties": { "CVE_EST": "TROLE05I40", "circuito": "2", "SISTEMA": "STE Trolebús", "NOMBRE": "Victoria", "TIPO": "Intermedia", "LINEA": "05", "ALCALDIAS": "Gustavo A. Madero", "Ramp_s_rue": null }, "geometry": { "type": "Point", "coordinates": [ -99.122971, 19.473947, 0.0 ] } },
{ "type": "Feature", "properties": { "CVE_EST": "TROLE05I68", "circuito": "1", "SISTEMA": "STE Trolebús", "NOMBRE": "Excelsior", "TIPO": "Intermedia", "LINEA": "05", "ALCALDIAS": "Gustavo A. Madero", "Ramp_s_rue": null }, "geometry": { "type": "Point", "coordinates": [ -99.123499616744269, 19.472207925861465, 0.0 ] } },
{ "type": "Feature", "properties": { "CVE_EST": "TROLE05I42", "circuito": "2", "SISTEMA": "STE Trolebús", "NOMBRE": "Basilio Romo Anguiano", "TIPO": "Intermedia", "LINEA": "05", "ALCALDIAS": "Gustavo A. Madero", "Ramp_s_rue": null }, "geometry": { "type": "Point", "coordinates": [ -99.124264, 19.470523, 0.0 ] } },
{ "type": "Feature", "properties": { "CVE_EST": "TROLE05I70", "circuito": "1", "SISTEMA": "STE Trolebús", "NOMBRE": "Robles Domínguez", "TIPO": "Intermedia", "LINEA": "05", "ALCALDIAS": "Gustavo A. Madero", "Ramp_s_rue": null }, "geometry": { "type": "Point", "coordinates": [ -99.124886982505942, 19.468546862655096, 0.0 ] } },
{ "type": "Feature", "properties": { "CVE_EST": "TROLE05I44", "circuito": "2", "SISTEMA": "STE Trolebús", "NOMBRE": "Donizetti", "TIPO": "Intermedia", "LINEA": "05", "ALCALDIAS": "Gustavo A. Madero", "Ramp_s_rue": null }, "geometry": { "type": "Point", "coordinates": [ -99.126331, 19.465021, 0.0 ] } },
{ "type": "Feature", "properties": { "CVE_EST": "TROLE05I45", "circuito": "2", "SISTEMA": "STE Trolebús", "NOMBRE": "Río Consulado", "TIPO": "Intermedia", "LINEA": "05", "ALCALDIAS": "Gustavo A. Madero", "Ramp_s_rue": null }, "geometry": { "type": "Point", "coordinates": [ -99.127501, 19.461941, 0.0 ] } },
{ "type": "Feature", "properties": { "CVE_EST": "TROLE05I46", "circuito": "1 y 2", "SISTEMA": "STE Trolebús", "NOMBRE": "Beetovhen", "TIPO": "Intermedia", "LINEA": "05", "ALCALDIAS": "Cuauhtémoc", "Ramp_s_rue": null }, "geometry": { "type": "Point", "coordinates": [ -99.128405, 19.459589, 0.0 ] } },
{ "type": "Feature", "properties": { "CVE_EST": "TROLE05I47", "circuito": "1", "SISTEMA": "STE Trolebús", "NOMBRE": "Juventino Rosas", "TIPO": "Intermedia", "LINEA": "05", "ALCALDIAS": "Cuauhtémoc", "Ramp_s_rue": null }, "geometry": { "type": "Point", "coordinates": [ -99.129182, 19.457553, 0.0 ] } },
{ "type": "Feature", "properties": { "CVE_EST": "TROLE05I75", "circuito": "2", "SISTEMA": "STE Trolebús", "NOMBRE": "Terminal Hidalgo", "TIPO": "Terminal", "LINEA": "05", "ALCALDIAS": "Cuauhtémoc", "Ramp_s_rue": null }, "geometry": { "type": "Point", "coordinates": [ -99.143967941857326, 19.437080141655301, 0.0 ] } },
{ "type": "Feature", "properties": { "CVE_EST": "TROLE05R08", "circuito": "2", "SISTEMA": "STE Trolebús", "NOMBRE": "Cobre", "TIPO": "Intermedia", "LINEA": "05", "ALCALDIAS": "Cuauhtémoc", "Ramp_s_rue": null }, "geometry": { "type": "Point", "coordinates": [ -99.12924607224096, 19.454847148569389, 0.0 ] } },
{ "type": "Feature", "properties": { "CVE_EST": "TROLE05R09", "circuito": "2", "SISTEMA": "STE Trolebús", "NOMBRE": "Hierro", "TIPO": "Intermedia", "LINEA": "05", "ALCALDIAS": "Cuauhtémoc", "Ramp_s_rue": null }, "geometry": { "type": "Point", "coordinates": [ -99.128029, 19.456715, 0.0 ] } },
{ "type": "Feature", "properties": { "CVE_EST": "TROLE05R10", "circuito": "2", "SISTEMA": "STE Trolebús", "NOMBRE": "Telurio", "TIPO": "Intermedia", "LINEA": "05", "ALCALDIAS": "Cuauhtémoc", "Ramp_s_rue": null }, "geometry": { "type": "Point", "coordinates": [ -99.127134, 19.45884, 0.0 ] } },
{ "type": "Feature", "properties": { "CVE_EST": "TROLE05R11", "circuito": "2", "SISTEMA": "STE Trolebús", "NOMBRE": "Río Consulado", "TIPO": "Intermedia", "LINEA": "05", "ALCALDIAS": "Cuauhtémoc", "Ramp_s_rue": null }, "geometry": { "type": "Point", "coordinates": [ -99.126428, 19.460718, 0.0 ] } },
{ "type": "Feature", "properties": { "CVE_EST": "TROLE05R12", "circuito": "2", "SISTEMA": "STE Trolebús", "NOMBRE": "Julieta", "TIPO": "Intermedia", "LINEA": "05", "ALCALDIAS": "Gustavo A. Madero", "Ramp_s_rue": null }, "geometry": { "type": "Point", "coordinates": [ -99.124992, 19.464292, 0.0 ] } },
{ "type": "Feature", "properties": { "CVE_EST": "TROLE05R13", "circuito": "2", "SISTEMA": "STE Trolebús", "NOMBRE": "Noé", "TIPO": "Intermedia", "LINEA": "05", "ALCALDIAS": "Gustavo A. Madero", "Ramp_s_rue": null }, "geometry": { "type": "Point", "coordinates": [ -99.123864, 19.467263, 0.0 ] } },
{ "type": "Feature", "properties": { "CVE_EST": "TROLE05R14", "circuito": "2", "SISTEMA": "STE Trolebús", "NOMBRE": "Henry Ford", "TIPO": "Intermedia", "LINEA": "05", "ALCALDIAS": "Gustavo A. Madero", "Ramp_s_rue": null }, "geometry": { "type": "Point", "coordinates": [ -99.122404, 19.470986, 0.0 ] } },
{ "type": "Feature", "properties": { "CVE_EST": "TROLE05R15", "circuito": "2", "SISTEMA": "STE Trolebús", "NOMBRE": "Victoria", "TIPO": "Intermedia", "LINEA": "05", "ALCALDIAS": "Gustavo A. Madero", "Ramp_s_rue": null }, "geometry": { "type": "Point", "coordinates": [ -99.121583, 19.473036, 0.0 ] } },
{ "type": "Feature", "properties": { "CVE_EST": "TROLE05R16", "circuito": "2", "SISTEMA": "STE Trolebús", "NOMBRE": "Joyas", "TIPO": "Intermedia", "LINEA": "05", "ALCALDIAS": "Gustavo A. Madero", "Ramp_s_rue": null }, "geometry": { "type": "Point", "coordinates": [ -99.120312, 19.476329, 0.0 ] } },
{ "type": "Feature", "properties": { "CVE_EST": "TROLE05R17", "circuito": "2", "SISTEMA": "STE Trolebús", "NOMBRE": "Talismán", "TIPO": "Intermedia", "LINEA": "05", "ALCALDIAS": "Gustavo A. Madero", "Ramp_s_rue": null }, "geometry": { "type": "Point", "coordinates": [ -99.119674, 19.477945, 0.0 ] } },
{ "type": "Feature", "properties": { "CVE_EST": "TROLE05R18", "circuito": "2", "SISTEMA": "STE Trolebús", "NOMBRE": "Moctezuma", "TIPO": "Intermedia", "LINEA": "05", "ALCALDIAS": "Gustavo A. Madero", "Ramp_s_rue": null }, "geometry": { "type": "Point", "coordinates": [ -99.118596, 19.480703, 0.0 ] } },
{ "type": "Feature", "properties": { "CVE_EST": "TROLE05R19", "circuito": "2", "SISTEMA": "STE Trolebús", "NOMBRE": "Hidalgo", "TIPO": "Intermedia", "LINEA": "05", "ALCALDIAS": "Gustavo A. Madero", "Ramp_s_rue": null }, "geometry": { "type": "Point", "coordinates": [ -99.117085, 19.480332, 0.0 ] } },
{ "type": "Feature", "properties": { "CVE_EST": "TROLE05R20", "circuito": "2", "SISTEMA": "STE Trolebús", "NOMBRE": "5 de Febrero", "TIPO": "Intermedia", "LINEA": "05", "ALCALDIAS": "Gustavo A. Madero", "Ramp_s_rue": null }, "geometry": { "type": "Point", "coordinates": [ -99.115580511965959, 19.479830114814163, 0.0 ] } },
{ "type": "Feature", "properties": { "CVE_EST": "TROLE05R21", "circuito": "2", "SISTEMA": "STE Trolebús", "NOMBRE": "Cuauhtémoc", "TIPO": "Intermedia", "LINEA": "05", "ALCALDIAS": "Gustavo A. Madero", "Ramp_s_rue": null }, "geometry": { "type": "Point", "coordinates": [ -99.115112464102111, 19.480339322933293, 0.0 ] } },
{ "type": "Feature", "properties": { "CVE_EST": "TROLE05R66", "circuito": "1", "SISTEMA": "STE Trolebús", "NOMBRE": "Gral. Villada", "TIPO": "Intermedia", "LINEA": "05", "ALCALDIAS": "Gustavo A. Madero", "Ramp_s_rue": null }, "geometry": { "type": "Point", "coordinates": [ -99.1145168438333, 19.482508996229086, 0.0 ] } },
{ "type": "Feature", "properties": { "CVE_EST": "TROLE05R25", "circuito": "1 y 2", "SISTEMA": "STE Trolebús", "NOMBRE": "Casa del Peregrino Juan Diego", "TIPO": "Intermedia", "LINEA": "05", "ALCALDIAS": "Gustavo A. Madero", "Ramp_s_rue": null }, "geometry": { "type": "Point", "coordinates": [ -99.109787, 19.483271, 2243.46 ] } },
{ "type": "Feature", "properties": { "CVE_EST": "TROLE05R38", "circuito": "1 y 2", "SISTEMA": "STE Trolebús", "NOMBRE": "Puerto de Tlacotalpan", "TIPO": "Intermedia", "LINEA": "05", "ALCALDIAS": "Gustavo A. Madero", "Ramp_s_rue": null }, "geometry": { "type": "Point", "coordinates": [ -99.081177, 19.473531, 0.0 ] } },
{ "type": "Feature", "properties": { "CVE_EST": "TROLE05R49", "circuito": "1 y 2", "SISTEMA": "STE Trolebús", "NOMBRE": "Edo. de Tabasco", "TIPO": "Intermedia", "LINEA": "05", "ALCALDIAS": "Gustavo A. Madero", "Ramp_s_rue": null }, "geometry": { "type": "Point", "coordinates": [ -99.069745, 19.485914, 0.0 ] } },
{ "type": "Feature", "properties": { "CVE_EST": "TROLE05I02", "circuito": "1 y 2", "SISTEMA": "STE Trolebús", "NOMBRE": "Sierra Hermosa", "TIPO": "Intermedia", "LINEA": "05", "ALCALDIAS": "Gustavo A. Madero", "Ramp_s_rue": null }, "geometry": { "type": "Point", "coordinates": [ -99.065929, 19.494186, 0.0 ] } },
{ "type": "Feature", "properties": { "CVE_EST": "TROLE05I03", "circuito": "1 y 2", "SISTEMA": "STE Trolebús", "NOMBRE": "Tepatitlán", "TIPO": "Intermedia", "LINEA": "05", "ALCALDIAS": "Gustavo A. Madero", "Ramp_s_rue": null }, "geometry": { "type": "Point", "coordinates": [ -99.066645, 19.492538, 0.0 ] } },
{ "type": "Feature", "properties": { "CVE_EST": "TROLE05R04", "circuito": "1 y 2", "SISTEMA": "STE Trolebús", "NOMBRE": "Garibaldi", "TIPO": "Intermedia", "LINEA": "05", "ALCALDIAS": "Cuauhtémoc", "Ramp_s_rue": null }, "geometry": { "type": "Point", "coordinates": [ -99.139464416355764, 19.443486532690699, 0.0 ] } },
{ "type": "Feature", "properties": { "CVE_EST": "TROLE05R07", "circuito": "1 y 2", "SISTEMA": "STE Trolebús", "NOMBRE": "Peralvillo", "TIPO": "Intermedia", "LINEA": "05", "ALCALDIAS": "Cuauhtémoc", "Ramp_s_rue": null }, "geometry": { "type": "Point", "coordinates": [ -99.130962475437116, 19.45270484809166, 0.0 ] } },
{ "type": "Feature", "properties": { "CVE_EST": "TROLE05I04", "circuito": "1 y 2", "SISTEMA": "STE Trolebús", "NOMBRE": "Calpulalpan", "TIPO": "Intermedia", "LINEA": "05", "ALCALDIAS": "Gustavo A. Madero", "Ramp_s_rue": null }, "geometry": { "type": "Point", "coordinates": [ -99.067479, 19.490607, 0.0 ] } },
{ "type": "Feature", "properties": { "CVE_EST": "TROLE05I05", "circuito": "1 y 2", "SISTEMA": "STE Trolebús", "NOMBRE": "Villa de Ayala", "TIPO": "Intermedia", "LINEA": "05", "ALCALDIAS": "Gustavo A. Madero", "Ramp_s_rue": null }, "geometry": { "type": "Point", "coordinates": [ -99.067989459916689, 19.489507609024518, 0.0 ] } },
{ "type": "Feature", "properties": { "CVE_EST": "TROLE05I48", "circuito": "1 y 2", "SISTEMA": "STE Trolebús", "NOMBRE": "Peralvillo", "TIPO": "Intermedia", "LINEA": "05", "ALCALDIAS": "Cuauhtémoc", "Ramp_s_rue": null }, "geometry": { "type": "Point", "coordinates": [ -99.130913573627808, 19.45370511402643, 0.0 ] } },
{ "type": "Feature", "properties": { "CVE_EST": "TROLE05I06", "circuito": "1 y 2", "SISTEMA": "STE Trolebús", "NOMBRE": "Edo. de Tabasco", "TIPO": "Intermedia", "LINEA": "05", "ALCALDIAS": "Gustavo A. Madero", "Ramp_s_rue": null }, "geometry": { "type": "Point", "coordinates": [ -99.069768, 19.486181, 0.0 ] } },
{ "type": "Feature", "properties": { "CVE_EST": "TROLE05I07", "circuito": "1 y 2", "SISTEMA": "STE Trolebús", "NOMBRE": "Edo. de Oaxaca", "TIPO": "Intermedia", "LINEA": "05", "ALCALDIAS": "Gustavo A. Madero", "Ramp_s_rue": null }, "geometry": { "type": "Point", "coordinates": [ -99.070185, 19.485097, 0.0 ] } },
{ "type": "Feature", "properties": { "CVE_EST": "TROLE05I08", "circuito": "1 y 2", "SISTEMA": "STE Trolebús", "NOMBRE": "Edo. de Morelos", "TIPO": "Intermedia", "LINEA": "05", "ALCALDIAS": "Gustavo A. Madero", "Ramp_s_rue": null }, "geometry": { "type": "Point", "coordinates": [ -99.07068, 19.483814, 0.0 ] } },
{ "type": "Feature", "properties": { "CVE_EST": "TROLE05I09", "circuito": "1 y 2", "SISTEMA": "STE Trolebús", "NOMBRE": "Const. de la República", "TIPO": "Intermedia", "LINEA": "05", "ALCALDIAS": "Gustavo A. Madero", "Ramp_s_rue": null }, "geometry": { "type": "Point", "coordinates": [ -99.071437, 19.481807, 0.0 ] } },
{ "type": "Feature", "properties": { "CVE_EST": "TROLE05I10", "circuito": "1 y 2", "SISTEMA": "STE Trolebús", "NOMBRE": "Edo. de Sinaloa", "TIPO": "Intermedia", "LINEA": "05", "ALCALDIAS": "Gustavo A. Madero", "Ramp_s_rue": null }, "geometry": { "type": "Point", "coordinates": [ -99.073704, 19.482164, 0.0 ] } },
{ "type": "Feature", "properties": { "CVE_EST": "TROLE05I12", "circuito": "1 y 2", "SISTEMA": "STE Trolebús", "NOMBRE": "Camino Sur", "TIPO": "Intermedia", "LINEA": "05", "ALCALDIAS": "Gustavo A. Madero", "Ramp_s_rue": null }, "geometry": { "type": "Point", "coordinates": [ -99.076857, 19.481691, 0.0 ] } },
{ "type": "Feature", "properties": { "CVE_EST": "TROLE05I13", "circuito": "1 y 2", "SISTEMA": "STE Trolebús", "NOMBRE": "Camino de La Liga", "TIPO": "Intermedia", "LINEA": "05", "ALCALDIAS": "Gustavo A. Madero", "Ramp_s_rue": null }, "geometry": { "type": "Point", "coordinates": [ -99.077835, 19.479183, 0.0 ] } },
{ "type": "Feature", "properties": { "CVE_EST": "TROLE05I14", "circuito": "1 y 2", "SISTEMA": "STE Trolebús", "NOMBRE": "Puerto de Mazatlán", "TIPO": "Intermedia", "LINEA": "05", "ALCALDIAS": "Gustavo A. Madero", "Ramp_s_rue": null }, "geometry": { "type": "Point", "coordinates": [ -99.078336, 19.477859, 0.0 ] } },
{ "type": "Feature", "properties": { "CVE_EST": "TROLE05I15", "circuito": "1 y 2", "SISTEMA": "STE Trolebús", "NOMBRE": "Puerto de Tampico", "TIPO": "Intermedia", "LINEA": "05", "ALCALDIAS": "Gustavo A. Madero", "Ramp_s_rue": null }, "geometry": { "type": "Point", "coordinates": [ -99.079072, 19.475938, 0.0 ] } },
{ "type": "Feature", "properties": { "CVE_EST": "TROLE05I16", "circuito": "1 y 2", "SISTEMA": "STE Trolebús", "NOMBRE": "Camino San Juan de Aragón", "TIPO": "Intermedia", "LINEA": "05", "ALCALDIAS": "Gustavo A. Madero", "Ramp_s_rue": null }, "geometry": { "type": "Point", "coordinates": [ -99.079245, 19.473681, 0.0 ] } },
{ "type": "Feature", "properties": { "CVE_EST": "TROLE05I17", "circuito": "1 y 2", "SISTEMA": "STE Trolebús", "NOMBRE": "Puerto de Tlacotalpan", "TIPO": "Intermedia", "LINEA": "05", "ALCALDIAS": "Gustavo A. Madero", "Ramp_s_rue": null }, "geometry": { "type": "Point", "coordinates": [ -99.081073, 19.473671, 0.0 ] } },
{ "type": "Feature", "properties": { "CVE_EST": "TROLE05I18", "circuito": "1 y 2", "SISTEMA": "STE Trolebús", "NOMBRE": "Puerto Barra de Nautla", "TIPO": "Intermedia", "LINEA": "05", "ALCALDIAS": "Gustavo A. Madero", "Ramp_s_rue": null }, "geometry": { "type": "Point", "coordinates": [ -99.082335, 19.473914, 0.0 ] } },
{ "type": "Feature", "properties": { "CVE_EST": "TROLE05I19", "circuito": "1 y 2", "SISTEMA": "STE Trolebús", "NOMBRE": "Puerto de Acapulco", "TIPO": "Intermedia", "LINEA": "05", "ALCALDIAS": "Gustavo A. Madero", "Ramp_s_rue": null }, "geometry": { "type": "Point", "coordinates": [ -99.084513, 19.474323, 0.0 ] } },
{ "type": "Feature", "properties": { "CVE_EST": "TROLE05I20", "circuito": "1 y 2", "SISTEMA": "STE Trolebús", "NOMBRE": "Puerto de San Blas", "TIPO": "Intermedia", "LINEA": "05", "ALCALDIAS": "Gustavo A. Madero", "Ramp_s_rue": null }, "geometry": { "type": "Point", "coordinates": [ -99.085938, 19.474599, 0.0 ] } },
{ "type": "Feature", "properties": { "CVE_EST": "TROLE05I21", "circuito": "1 y 2", "SISTEMA": "STE Trolebús", "NOMBRE": "Puerto de Coatzacoalcos", "TIPO": "Intermedia", "LINEA": "05", "ALCALDIAS": "Gustavo A. Madero", "Ramp_s_rue": null }, "geometry": { "type": "Point", "coordinates": [ -99.088506, 19.47509, 0.0 ] } },
{ "type": "Feature", "properties": { "CVE_EST": "TROLE05I22", "circuito": "1 y 2", "SISTEMA": "STE Trolebús", "NOMBRE": "Av. Gran Canal I", "TIPO": "Intermedia", "LINEA": "05", "ALCALDIAS": "Gustavo A. Madero", "Ramp_s_rue": null }, "geometry": { "type": "Point", "coordinates": [ -99.090321, 19.476129, 0.0 ] } },
{ "type": "Feature", "properties": { "CVE_EST": "TROLE05I23", "circuito": "1 y 2", "SISTEMA": "STE Trolebús", "NOMBRE": "Av. Gran Canal II", "TIPO": "Intermedia", "LINEA": "05", "ALCALDIAS": "Gustavo A. Madero", "Ramp_s_rue": null }, "geometry": { "type": "Point", "coordinates": [ -99.09249, 19.477025, 0.0 ] } },
{ "type": "Feature", "properties": { "CVE_EST": "TROLE05I24", "circuito": "1 y 2", "SISTEMA": "STE Trolebús", "NOMBRE": "Arcos de Aragón", "TIPO": "Intermedia", "LINEA": "05", "ALCALDIAS": "Gustavo A. Madero", "Ramp_s_rue": null }, "geometry": { "type": "Point", "coordinates": [ -99.0944, 19.477814, 0.0 ] } },
{ "type": "Feature", "properties": { "CVE_EST": "TROLE05I25", "circuito": "1 y 2", "SISTEMA": "STE Trolebús", "NOMBRE": "Eduardo Molina", "TIPO": "Intermedia", "LINEA": "05", "ALCALDIAS": "Gustavo A. Madero", "Ramp_s_rue": null }, "geometry": { "type": "Point", "coordinates": [ -99.097116, 19.478933, 0.0 ] } },
{ "type": "Feature", "properties": { "CVE_EST": "TROLE05I26", "circuito": "1 y 2", "SISTEMA": "STE Trolebús", "NOMBRE": "José de la Luz Rosas", "TIPO": "Intermedia", "LINEA": "05", "ALCALDIAS": "Gustavo A. Madero", "Ramp_s_rue": null }, "geometry": { "type": "Point", "coordinates": [ -99.101402, 19.480676, 0.0 ] } },
{ "type": "Feature", "properties": { "CVE_EST": "TROLE05I27", "circuito": "1 y 2", "SISTEMA": "STE Trolebús", "NOMBRE": "FFCC Hidalgo", "TIPO": "Intermedia", "LINEA": "05", "ALCALDIAS": "Gustavo A. Madero", "Ramp_s_rue": null }, "geometry": { "type": "Point", "coordinates": [ -99.105393, 19.482255, 0.0 ] } },
{ "type": "Feature", "properties": { "CVE_EST": "TROLE05I28", "circuito": "1 y 2", "SISTEMA": "STE Trolebús", "NOMBRE": "M. Martín Carrera", "TIPO": "Intermedia", "LINEA": "05", "ALCALDIAS": "Gustavo A. Madero", "Ramp_s_rue": null }, "geometry": { "type": "Point", "coordinates": [ -99.107257688409092, 19.482932780227276, 0.0 ] } },
{ "type": "Feature", "properties": { "CVE_EST": "TROLE05I29", "circuito": "1 y 2", "SISTEMA": "STE Trolebús", "NOMBRE": "Casa del Peregrino Juan Diego", "TIPO": "Intermedia", "LINEA": "05", "ALCALDIAS": "Gustavo A. Madero", "Ramp_s_rue": null }, "geometry": { "type": "Point", "coordinates": [ -99.109524, 19.483389, 0.0 ] } },
{ "type": "Feature", "properties": { "CVE_EST": "TROLE05I30", "circuito": "1 y 2", "SISTEMA": "STE Trolebús", "NOMBRE": "5 de Febrero", "TIPO": "Intermedia", "LINEA": "05", "ALCALDIAS": "Gustavo A. Madero", "Ramp_s_rue": null }, "geometry": { "type": "Point", "coordinates": [ -99.113387, 19.484267, 0.0 ] } },
{ "type": "Feature", "properties": { "CVE_EST": "TROLE05I31", "circuito": "1 y 2", "SISTEMA": "STE Trolebús", "NOMBRE": "Gral. Martín Carrera", "TIPO": "Intermedia", "LINEA": "05", "ALCALDIAS": "Gustavo A. Madero", "Ramp_s_rue": null }, "geometry": { "type": "Point", "coordinates": [ -99.112884, 19.486704, 0.0 ] } },
{ "type": "Feature", "properties": { "CVE_EST": "TROLE05I32", "circuito": "1 y 2", "SISTEMA": "STE Trolebús", "NOMBRE": "Gral. Mariano Salas", "TIPO": "Intermedia", "LINEA": "05", "ALCALDIAS": "Gustavo A. Madero", "Ramp_s_rue": null }, "geometry": { "type": "Point", "coordinates": [ -99.113551, 19.487795, 0.0 ] } },
{ "type": "Feature", "properties": { "CVE_EST": "TROLE05R22", "circuito": "2", "SISTEMA": "STE Trolebús", "NOMBRE": "Gral. Villada", "TIPO": "Intermedia", "LINEA": "05", "ALCALDIAS": "Gustavo A. Madero", "Ramp_s_rue": null }, "geometry": { "type": "Point", "coordinates": [ -99.114436191349583, 19.48223771060205, 0.0 ] } },
{ "type": "Feature", "properties": { "CVE_EST": "TROLE05R24", "circuito": "1 y 2", "SISTEMA": "STE Trolebús", "NOMBRE": "Calz. San Juan Aragón", "TIPO": "Intermedia", "LINEA": "05", "ALCALDIAS": "Gustavo A. Madero", "Ramp_s_rue": null }, "geometry": { "type": "Point", "coordinates": [ -99.113404, 19.484013, 0.0 ] } },
{ "type": "Feature", "properties": { "CVE_EST": "TROLE05R26", "circuito": "1 y 2", "SISTEMA": "STE Trolebús", "NOMBRE": "M. Martín Carrera", "TIPO": "Intermedia", "LINEA": "05", "ALCALDIAS": "Gustavo A. Madero", "Ramp_s_rue": null }, "geometry": { "type": "Point", "coordinates": [ -99.106913, 19.482655, 0.0 ] } },
{ "type": "Feature", "properties": { "CVE_EST": "TROLE05R27", "circuito": "1 y 2", "SISTEMA": "STE Trolebús", "NOMBRE": "Hospital de la Villa", "TIPO": "Intermedia", "LINEA": "05", "ALCALDIAS": "Gustavo A. Madero", "Ramp_s_rue": null }, "geometry": { "type": "Point", "coordinates": [ -99.103075, 19.480858, 0.0 ] } },
{ "type": "Feature", "properties": { "CVE_EST": "TROLE05R28", "circuito": "1 y 2", "SISTEMA": "STE Trolebús", "NOMBRE": "San Juan", "TIPO": "Intermedia", "LINEA": "05", "ALCALDIAS": "Gustavo A. Madero", "Ramp_s_rue": null }, "geometry": { "type": "Point", "coordinates": [ -99.101953, 19.480395, 0.0 ] } },
{ "type": "Feature", "properties": { "CVE_EST": "TROLE05R29", "circuito": "1 y 2", "SISTEMA": "STE Trolebús", "NOMBRE": "Eduardo Molina", "TIPO": "Intermedia", "LINEA": "05", "ALCALDIAS": "Gustavo A. Madero", "Ramp_s_rue": null }, "geometry": { "type": "Point", "coordinates": [ -99.098516, 19.479013, 0.0 ] } },
{ "type": "Feature", "properties": { "CVE_EST": "TROLE05R30", "circuito": "1 y 2", "SISTEMA": "STE Trolebús", "NOMBRE": "Clínica 23 IMSS", "TIPO": "Intermedia", "LINEA": "05", "ALCALDIAS": "Gustavo A. Madero", "Ramp_s_rue": null }, "geometry": { "type": "Point", "coordinates": [ -99.096368, 19.478131, 0.0 ] } },
{ "type": "Feature", "properties": { "CVE_EST": "TROLE05R31", "circuito": "1 y 2", "SISTEMA": "STE Trolebús", "NOMBRE": "Arcos de Aragón", "TIPO": "Intermedia", "LINEA": "05", "ALCALDIAS": "Gustavo A. Madero", "Ramp_s_rue": null }, "geometry": { "type": "Point", "coordinates": [ -99.094822, 19.477498, 0.0 ] } },
{ "type": "Feature", "properties": { "CVE_EST": "TROLE05R32", "circuito": "1 y 2", "SISTEMA": "STE Trolebús", "NOMBRE": "Norte 94", "TIPO": "Intermedia", "LINEA": "05", "ALCALDIAS": "Gustavo A. Madero", "Ramp_s_rue": null }, "geometry": { "type": "Point", "coordinates": [ -99.0929, 19.476886, 0.0 ] } },
{ "type": "Feature", "properties": { "CVE_EST": "TROLE05R33", "circuito": "1 y 2", "SISTEMA": "STE Trolebús", "NOMBRE": "Puerto de Cádiz", "TIPO": "Intermedia", "LINEA": "05", "ALCALDIAS": "Gustavo A. Madero", "Ramp_s_rue": null }, "geometry": { "type": "Point", "coordinates": [ -99.090852, 19.476105, 0.0 ] } },
{ "type": "Feature", "properties": { "CVE_EST": "TROLE05R34", "circuito": "1 y 2", "SISTEMA": "STE Trolebús", "NOMBRE": "Puerto de Cozumel", "TIPO": "Intermedia", "LINEA": "05", "ALCALDIAS": "Gustavo A. Madero", "Ramp_s_rue": null }, "geometry": { "type": "Point", "coordinates": [ -99.087820336072426, 19.474795282749771, 0.0 ] } },
{ "type": "Feature", "properties": { "CVE_EST": "TROLE05R35", "circuito": "1 y 2", "SISTEMA": "STE Trolebús", "NOMBRE": "Puerto de Guaymas", "TIPO": "Intermedia", "LINEA": "05", "ALCALDIAS": "Gustavo A. Madero", "Ramp_s_rue": null }, "geometry": { "type": "Point", "coordinates": [ -99.087066, 19.474636, 0.0 ] } },
{ "type": "Feature", "properties": { "CVE_EST": "TROLE05R36", "circuito": "1 y 2", "SISTEMA": "STE Trolebús", "NOMBRE": "Puerto de Acapulco", "TIPO": "Intermedia", "LINEA": "05", "ALCALDIAS": "Gustavo A. Madero", "Ramp_s_rue": null }, "geometry": { "type": "Point", "coordinates": [ -99.084964, 19.474243, 0.0 ] } },
{ "type": "Feature", "properties": { "CVE_EST": "TROLE05R37", "circuito": "1 y 2", "SISTEMA": "STE Trolebús", "NOMBRE": "Puerto Progreso", "TIPO": "Intermedia", "LINEA": "05", "ALCALDIAS": "Gustavo A. Madero", "Ramp_s_rue": null }, "geometry": { "type": "Point", "coordinates": [ -99.082925, 19.473856, 0.0 ] } },
{ "type": "Feature", "properties": { "CVE_EST": "TROLE05R39", "circuito": "1 y 2", "SISTEMA": "STE Trolebús", "NOMBRE": "Loreto Fabela", "TIPO": "Intermedia", "LINEA": "05", "ALCALDIAS": "Gustavo A. Madero", "Ramp_s_rue": null }, "geometry": { "type": "Point", "coordinates": [ -99.079533, 19.473207, 0.0 ] } },
{ "type": "Feature", "properties": { "CVE_EST": "TROLE05R40", "circuito": "1 y 2", "SISTEMA": "STE Trolebús", "NOMBRE": "Puerto de Tampico", "TIPO": "Intermedia", "LINEA": "05", "ALCALDIAS": "Gustavo A. Madero", "Ramp_s_rue": null }, "geometry": { "type": "Point", "coordinates": [ -99.078807, 19.475546, 0.0 ] } },
{ "type": "Feature", "properties": { "CVE_EST": "TROLE05R41", "circuito": "1 y 2", "SISTEMA": "STE Trolebús", "NOMBRE": "Puerto de Mazatlán", "TIPO": "Intermedia", "LINEA": "05", "ALCALDIAS": "Gustavo A. Madero", "Ramp_s_rue": null }, "geometry": { "type": "Point", "coordinates": [ -99.07807, 19.477642, 0.0 ] } },
{ "type": "Feature", "properties": { "CVE_EST": "TROLE05R42", "circuito": "1 y 2", "SISTEMA": "STE Trolebús", "NOMBRE": "Deportivo los Galeana", "TIPO": "Intermedia", "LINEA": "05", "ALCALDIAS": "Gustavo A. Madero", "Ramp_s_rue": null }, "geometry": { "type": "Point", "coordinates": [ -99.077589, 19.478919, 0.0 ] } },
{ "type": "Feature", "properties": { "CVE_EST": "TROLE05R43", "circuito": "1 y 2", "SISTEMA": "STE Trolebús", "NOMBRE": "Francisco Morazán", "TIPO": "Intermedia", "LINEA": "05", "ALCALDIAS": "Gustavo A. Madero", "Ramp_s_rue": null }, "geometry": { "type": "Point", "coordinates": [ -99.076929, 19.480549, 0.0 ] } },
{ "type": "Feature", "properties": { "CVE_EST": "TROLE05R44", "circuito": "1 y 2", "SISTEMA": "STE Trolebús", "NOMBRE": "Const. de la República", "TIPO": "Intermedia", "LINEA": "05", "ALCALDIAS": "Gustavo A. Madero", "Ramp_s_rue": null }, "geometry": { "type": "Point", "coordinates": [ -99.075912, 19.48234, 0.0 ] } },
{ "type": "Feature", "properties": { "CVE_EST": "TROLE05R45", "circuito": "1 y 2", "SISTEMA": "STE Trolebús", "NOMBRE": "Edo. de Sinaloa", "TIPO": "Intermedia", "LINEA": "05", "ALCALDIAS": "Gustavo A. Madero", "Ramp_s_rue": null }, "geometry": { "type": "Point", "coordinates": [ -99.074032, 19.482059, 0.0 ] } },
{ "type": "Feature", "properties": { "CVE_EST": "TROLE05R46", "circuito": "1 y 2", "SISTEMA": "STE Trolebús", "NOMBRE": "Edo. de Tamaulipas", "TIPO": "Intermedia", "LINEA": "05", "ALCALDIAS": "Gustavo A. Madero", "Ramp_s_rue": null }, "geometry": { "type": "Point", "coordinates": [ -99.072096, 19.481662, 0.0 ] } },
{ "type": "Feature", "properties": { "CVE_EST": "TROLE05R47", "circuito": "1 y 2", "SISTEMA": "STE Trolebús", "NOMBRE": "Edo. de Morelos", "TIPO": "Intermedia", "LINEA": "05", "ALCALDIAS": "Gustavo A. Madero", "Ramp_s_rue": null }, "geometry": { "type": "Point", "coordinates": [ -99.070678, 19.483464, 0.0 ] } },
{ "type": "Feature", "properties": { "CVE_EST": "TROLE05R48", "circuito": "1 y 2", "SISTEMA": "STE Trolebús", "NOMBRE": "Edo. de Oaxaca", "TIPO": "Intermedia", "LINEA": "05", "ALCALDIAS": "Gustavo A. Madero", "Ramp_s_rue": null }, "geometry": { "type": "Point", "coordinates": [ -99.070169, 19.48479, 0.0 ] } },
{ "type": "Feature", "properties": { "CVE_EST": "TROLE05R50", "circuito": "1 y 2", "SISTEMA": "STE Trolebús", "NOMBRE": "Villa de Ayala", "TIPO": "Intermedia", "LINEA": "05", "ALCALDIAS": "Gustavo A. Madero", "Ramp_s_rue": null }, "geometry": { "type": "Point", "coordinates": [ -99.068753, 19.488432, 0.0 ] } },
{ "type": "Feature", "properties": { "CVE_EST": "TROLE05R51", "circuito": "1 y 2", "SISTEMA": "STE Trolebús", "NOMBRE": "Calpulalpan", "TIPO": "Intermedia", "LINEA": "05", "ALCALDIAS": "Gustavo A. Madero/Nezahualcóyotl", "Ramp_s_rue": null }, "geometry": { "type": "Point", "coordinates": [ -99.067408, 19.49034, 0.0 ] } },
{ "type": "Feature", "properties": { "CVE_EST": "TROLE05R52", "circuito": "1 y 2", "SISTEMA": "STE Trolebús", "NOMBRE": "Valle de Sambesi", "TIPO": "Intermedia", "LINEA": "05", "ALCALDIAS": "Gustavo A. Madero/Nezahualcóyotl", "Ramp_s_rue": null }, "geometry": { "type": "Point", "coordinates": [ -99.066808, 19.491743, 0.0 ] } },
{ "type": "Feature", "properties": { "CVE_EST": "TROLE05R53", "circuito": "1 y 2", "SISTEMA": "STE Trolebús", "NOMBRE": "Valle de Yukón", "TIPO": "Intermedia", "LINEA": "05", "ALCALDIAS": "Gustavo A. Madero/Nezahualcóyotl", "Ramp_s_rue": null }, "geometry": { "type": "Point", "coordinates": [ -99.066267, 19.492983, 0.0 ] } },
{ "type": "Feature", "properties": { "CVE_EST": "TROLE05R54", "circuito": "1 y 2", "SISTEMA": "STE Trolebús", "NOMBRE": "Valle Yang Tse", "TIPO": "Intermedia", "LINEA": "05", "ALCALDIAS": "Gustavo A. Madero/Nezahualcóyotl", "Ramp_s_rue": null }, "geometry": { "type": "Point", "coordinates": [ -99.065414, 19.494975, 0.0 ] } },
{ "type": "Feature", "properties": { "CVE_EST": "TROLE05R72", "circuito": "1", "SISTEMA": "STE Trolebús", "NOMBRE": "Garrido", "TIPO": "Intermedia", "LINEA": "05", "ALCALDIAS": "Gustavo A. Madero", "Ramp_s_rue": null }, "geometry": { "type": "Point", "coordinates": [ -99.119389847373583, 19.483012844665701, 0.0 ] } },
{ "type": "Feature", "properties": { "CVE_EST": "TROLE05I35", "circuito": "2", "SISTEMA": "STE Trolebús", "NOMBRE": "Garrido", "TIPO": "Intermedia", "LINEA": "05", "ALCALDIAS": "Gustavo A. Madero", "Ramp_s_rue": null }, "geometry": { "type": "Point", "coordinates": [ -99.119356312774144, 19.483529692448236, 0.0 ] } },
{ "type": "Feature", "properties": { "CVE_EST": "TROLE05I63", "circuito": "2", "SISTEMA": "STE Trolebús", "NOMBRE": "De los Misterios", "TIPO": "Intermedia", "LINEA": "05", "ALCALDIAS": "Gustavo A. Madero", "Ramp_s_rue": null }, "geometry": { "type": "Point", "coordinates": [ -99.117885086691317, 19.487549395343493, 0.0 ] } },
{ "type": "Feature", "properties": { "CVE_EST": "TROLE05I65", "circuito": "1 y 2", "SISTEMA": "STE Trolebús", "NOMBRE": "Av. Talismán", "TIPO": "Intermedia", "LINEA": "05", "ALCALDIAS": "Gustavo A. Madero", "Ramp_s_rue": null }, "geometry": { "type": "Point", "coordinates": [ -99.121092713800209, 19.47893625419184, 0.0 ] } },
{ "type": "Feature", "properties": { "CVE_EST": "TROLE05R65", "circuito": "1", "SISTEMA": "STE Trolebús", "NOMBRE": "Av. Talismán", "TIPO": "Intermedia", "LINEA": "05", "ALCALDIAS": "Gustavo A. Madero", "Ramp_s_rue": null }, "geometry": { "type": "Point", "coordinates": [ -99.121090307586087, 19.478457361761539, 0.0 ] } },
{ "type": "Feature", "properties": { "CVE_EST": "TROLE05I66", "circuito": "1", "SISTEMA": "STE Trolebús", "NOMBRE": "Necaxa", "TIPO": "Intermedia", "LINEA": "05", "ALCALDIAS": "Gustavo A. Madero", "Ramp_s_rue": null }, "geometry": { "type": "Point", "coordinates": [ -99.122011115729819, 19.476502493325359, 0.0 ] } },
{ "type": "Feature", "properties": { "CVE_EST": "TROLE05R71", "circuito": "1", "SISTEMA": "STE Trolebús", "NOMBRE": "Necaxa", "TIPO": "Intermedia", "LINEA": "05", "ALCALDIAS": "Gustavo A. Madero", "Ramp_s_rue": null }, "geometry": { "type": "Point", "coordinates": [ -99.122332242403346, 19.475180454344244, 0.0 ] } },
{ "type": "Feature", "properties": { "CVE_EST": "TROLE05I41", "circuito": "1 y 2", "SISTEMA": "STE Trolebús", "NOMBRE": "Excelsior", "TIPO": "Intermedia", "LINEA": "05", "ALCALDIAS": "Gustavo A. Madero", "Ramp_s_rue": null }, "geometry": { "type": "Point", "coordinates": [ -99.123621746935612, 19.472304947192043, 0.0 ] } },
{ "type": "Feature", "properties": { "CVE_EST": "TROLE05R73", "circuito": "1", "SISTEMA": "STE Trolebús", "NOMBRE": "Excelsior", "TIPO": "Intermedia", "LINEA": "05", "ALCALDIAS": "Gustavo A. Madero", "Ramp_s_rue": null }, "geometry": { "type": "Point", "coordinates": [ -99.12405285336574, 19.4705999330601, 0.0 ] } },
{ "type": "Feature", "properties": { "CVE_EST": "TROLE05I61", "circuito": "1", "SISTEMA": "STE Trolebús", "NOMBRE": "El Ángel", "TIPO": "Intermedia", "LINEA": "05", "ALCALDIAS": "Cuauhtémoc", "Ramp_s_rue": null }, "geometry": { "type": "Point", "coordinates": [ -99.168715743044331, 19.426663551279344, 0.0 ] } },
{ "type": "Feature", "properties": { "CVE_EST": "TROLE05I43", "circuito": "1 y 2", "SISTEMA": "STE Trolebús", "NOMBRE": "Robles Domínguez", "TIPO": "Intermedia", "LINEA": "05", "ALCALDIAS": "Gustavo A. Madero", "Ramp_s_rue": null }, "geometry": { "type": "Point", "coordinates": [ -99.124963979359094, 19.468615377084177, 0.0 ] } },
{ "type": "Feature", "properties": { "CVE_EST": "TROLE05R64", "circuito": "1", "SISTEMA": "STE Trolebús", "NOMBRE": "Robles Domínguez", "TIPO": "Intermedia", "LINEA": "05", "ALCALDIAS": "Gustavo A. Madero", "Ramp_s_rue": null }, "geometry": { "type": "Point", "coordinates": [ -99.125495335749008, 19.46684708258714, 0.0 ] } },
{ "type": "Feature", "properties": { "CVE_EST": "TROLE05R68", "circuito": "1", "SISTEMA": "STE Trolebús", "NOMBRE": "Clave", "TIPO": "Intermedia", "LINEA": "05", "ALCALDIAS": "Cuauhtémoc", "Ramp_s_rue": null }, "geometry": { "type": "Point", "coordinates": [ -99.127645231219049, 19.461089088241557, 0.0 ] } },
{ "type": "Feature", "properties": { "CVE_EST": "TROLE05I71", "circuito": "1", "SISTEMA": "STE Trolebús", "NOMBRE": "Clave", "TIPO": "Intermedia", "LINEA": "05", "ALCALDIAS": "Gustavo A. Madero", "Ramp_s_rue": null }, "geometry": { "type": "Point", "coordinates": [ -99.127404855834584, 19.46241516196929, 0.0 ] } },
{ "type": "Feature", "properties": { "CVE_EST": "TROLE05I73", "circuito": "1 y 2", "SISTEMA": "STE Trolebús", "NOMBRE": "Mercado Beetovhen", "TIPO": "Intermedia", "LINEA": "05", "ALCALDIAS": "Cuauhtémoc", "Ramp_s_rue": null }, "geometry": { "type": "Point", "coordinates": [ -99.129199251898868, 19.457529301225822, 0.0 ] } },
{ "type": "Feature", "properties": { "CVE_EST": "TROLE05R67", "circuito": "1", "SISTEMA": "STE Trolebús", "NOMBRE": "Mercado Beetovhen", "TIPO": "Intermedia", "LINEA": "05", "ALCALDIAS": "Cuauhtémoc", "Ramp_s_rue": null }, "geometry": { "type": "Point", "coordinates": [ -99.12916604963462, 19.457131950003596, 0.0 ] } },
{ "type": "Feature", "properties": { "CVE_EST": "TROLE05R06", "circuito": "1 y 2", "SISTEMA": "STE Trolebús", "NOMBRE": "Tres Culturas", "TIPO": "Intermedia", "LINEA": "05", "ALCALDIAS": "Cuauhtémoc", "Ramp_s_rue": null }, "geometry": { "type": "Point", "coordinates": [ -99.132578090807996, 19.450750423143269, 0.0 ] } },
{ "type": "Feature", "properties": { "CVE_EST": "TROLE05I52", "circuito": "1 y 2", "SISTEMA": "STE Trolebús", "NOMBRE": "Garibaldi", "TIPO": "Intermedia", "LINEA": "05", "ALCALDIAS": "Cuauhtémoc", "Ramp_s_rue": null }, "geometry": { "type": "Point", "coordinates": [ -99.13954492954818, 19.444372975745555, 0.0 ] } },
{ "type": "Feature", "properties": { "CVE_EST": "TROLE05I54", "circuito": "1", "SISTEMA": "STE Trolebús", "NOMBRE": "Metro Hidalgo", "TIPO": "Intermedia", "LINEA": "05", "ALCALDIAS": "Cuauhtémoc", "Ramp_s_rue": null }, "geometry": { "type": "Point", "coordinates": [ -99.147641876039316, 19.436897304940519, 0.0 ] } },
{ "type": "Feature", "properties": { "CVE_EST": "TROLE05R02", "circuito": "1", "SISTEMA": "STE Trolebús", "NOMBRE": "Hidalgo", "TIPO": "Intermedia", "LINEA": "05", "ALCALDIAS": "Cuauhtémoc", "Ramp_s_rue": null }, "geometry": { "type": "Point", "coordinates": [ -99.147514529584996, 19.436566013488619, 0.0 ] } },
{ "type": "Feature", "properties": { "CVE_EST": "TROLE05I55", "circuito": "1", "SISTEMA": "STE Trolebús", "NOMBRE": "El Caballito", "TIPO": "Intermedia", "LINEA": "05", "ALCALDIAS": "Cuauhtémoc", "Ramp_s_rue": null }, "geometry": { "type": "Point", "coordinates": [ -99.149011933753229, 19.436073191558041, 0.0 ] } },
{ "type": "Feature", "properties": { "CVE_EST": "TROLE05R01", "circuito": "1", "SISTEMA": "STE Trolebús", "NOMBRE": "El Caballito", "TIPO": "Intermedia", "LINEA": "05", "ALCALDIAS": "Cuauhtémoc", "Ramp_s_rue": null }, "geometry": { "type": "Point", "coordinates": [ -99.150333911202722, 19.435005943343238, 0.0 ] } },
{ "type": "Feature", "properties": { "CVE_EST": "TROLE05R56", "circuito": "1", "SISTEMA": "STE Trolebús", "NOMBRE": "Glorieta Colón", "TIPO": "Intermedia", "LINEA": "05", "ALCALDIAS": "Cuauhtémoc", "Ramp_s_rue": null }, "geometry": { "type": "Point", "coordinates": [ -99.153565433698091, 19.43350860771444, 0.0 ] } },
{ "type": "Feature", "properties": { "CVE_EST": "TROLE05I56", "circuito": "1", "SISTEMA": "STE Trolebús", "NOMBRE": "Glorieta Colón", "TIPO": "Intermedia", "LINEA": "05", "ALCALDIAS": "Cuauhtémoc", "Ramp_s_rue": null }, "geometry": { "type": "Point", "coordinates": [ -99.153181363663492, 19.434031174695601, 0.0 ] } },
{ "type": "Feature", "properties": { "CVE_EST": "TROLE05R57", "circuito": "1", "SISTEMA": "STE Trolebús", "NOMBRE": "París", "TIPO": "Intermedia", "LINEA": "05", "ALCALDIAS": "Cuauhtémoc", "Ramp_s_rue": null }, "geometry": { "type": "Point", "coordinates": [ -99.155914639875661, 19.432353770728621, 0.0 ] } },
{ "type": "Feature", "properties": { "CVE_EST": "TROLE05I57", "circuito": "1", "SISTEMA": "STE Trolebús", "NOMBRE": "París", "TIPO": "Intermedia", "LINEA": "05", "ALCALDIAS": "Cuauhtémoc", "Ramp_s_rue": null }, "geometry": { "type": "Point", "coordinates": [ -99.155957700231355, 19.432667089248167, 0.0 ] } },
{ "type": "Feature", "properties": { "CVE_EST": "TROLE05I59", "circuito": "1", "SISTEMA": "STE Trolebús", "NOMBRE": "Hamburgo", "TIPO": "Intermedia", "LINEA": "05", "ALCALDIAS": "Cuauhtémoc", "Ramp_s_rue": null }, "geometry": { "type": "Point", "coordinates": [ -99.161529268101091, 19.430095281940918, 0.0 ] } },
{ "type": "Feature", "properties": { "CVE_EST": "TROLE05I58", "circuito": "1", "SISTEMA": "STE Trolebús", "NOMBRE": "Reforma", "TIPO": "Intermedia", "LINEA": "05", "ALCALDIAS": "Cuauhtémoc", "Ramp_s_rue": null }, "geometry": { "type": "Point", "coordinates": [ -99.158712314103525, 19.431440658969926, 0.0 ] } },
{ "type": "Feature", "properties": { "CVE_EST": "TROLE05R58", "circuito": "1", "SISTEMA": "STE Trolebús", "NOMBRE": "Reforma", "TIPO": "Intermedia", "LINEA": "05", "ALCALDIAS": "Cuauhtémoc", "Ramp_s_rue": null }, "geometry": { "type": "Point", "coordinates": [ -99.158530132044461, 19.431099542670712, 0.0 ] } },
{ "type": "Feature", "properties": { "CVE_EST": "TROLE05R59", "circuito": "1", "SISTEMA": "STE Trolebús", "NOMBRE": "Hamburgo", "TIPO": "Intermedia", "LINEA": "05", "ALCALDIAS": "Cuauhtémoc", "Ramp_s_rue": null }, "geometry": { "type": "Point", "coordinates": [ -99.162672820897029, 19.429182379637449, 0.0 ] } },
{ "type": "Feature", "properties": { "CVE_EST": "TROLE05I60", "circuito": "1", "SISTEMA": "STE Trolebús", "NOMBRE": "La Palma", "TIPO": "Intermedia", "LINEA": "05", "ALCALDIAS": "Cuauhtémoc", "Ramp_s_rue": null }, "geometry": { "type": "Point", "coordinates": [ -99.164768361984741, 19.428533537315545, 0.0 ] } },
{ "type": "Feature", "properties": { "CVE_EST": "TROLE05R60", "circuito": "1", "SISTEMA": "STE Trolebús", "NOMBRE": "La Palma", "TIPO": "Intermedia", "LINEA": "05", "ALCALDIAS": "Cuauhtémoc", "Ramp_s_rue": null }, "geometry": { "type": "Point", "coordinates": [ -99.165120612135496, 19.428039868933929, 0.0 ] } },
{ "type": "Feature", "properties": { "CVE_EST": "TROLE05I62", "circuito": "1", "SISTEMA": "STE Trolebús", "NOMBRE": "La Diana", "TIPO": "Terminal", "LINEA": "05", "ALCALDIAS": "Cuauhtémoc", "Ramp_s_rue": null }, "geometry": { "type": "Point", "coordinates": [ -99.170872851415766, 19.425659355586763, 0.0 ] } },
{ "type": "Feature", "properties": { "CVE_EST": "TROLE05R61", "circuito": "1", "SISTEMA": "STE Trolebús", "NOMBRE": "El Ángel", "TIPO": "Intermedia", "LINEA": "05", "ALCALDIAS": "Cuauhtémoc", "Ramp_s_rue": null }, "geometry": { "type": "Point", "coordinates": [ -99.168529924449714, 19.426400370205581, 0.0 ] } },
{ "type": "Feature", "properties": { "CVE_EST": "TROLE05R62", "circuito": "1", "SISTEMA": "STE Trolebús", "NOMBRE": "La Diana", "TIPO": "Terminal", "LINEA": "05", "ALCALDIAS": "Cuauhtémoc", "Ramp_s_rue": null }, "geometry": { "type": "Point", "coordinates": [ -99.17126467432999, 19.425147060021892, 0.0 ] } },
{ "type": "Feature", "properties": { "CVE_EST": "TROLE05R05", "circuito": "1 y 2", "SISTEMA": "STE Trolebús", "NOMBRE": "Glorieta Cuitláhuac", "TIPO": "Intermedia", "LINEA": "05", "ALCALDIAS": "Cuauhtémoc", "Ramp_s_rue": null }, "geometry": { "type": "Point", "coordinates": [ -99.135532879323094, 19.447271801551324, 0.0 ] } },
{ "type": "Feature", "properties": { "CVE_EST": "TROLE10E01", "circuito": null, "SISTEMA": "STE Trolebús Elevado", "NOMBRE": "Constitución de 1917", "TIPO": "Terminal", "LINEA": "10", "ALCALDIAS": "Iztapalapa", "Ramp_s_rue": null }, "geometry": { "type": "Point", "coordinates": [ -99.064171720827332, 19.3456425043845, 0.0 ] } },
{ "type": "Feature", "properties": { "CVE_EST": "TROLE10E02", "circuito": null, "SISTEMA": "STE Trolebús Elevado", "NOMBRE": "Tulipán", "TIPO": "Intermedia", "LINEA": "10", "ALCALDIAS": "Iztapalapa", "Ramp_s_rue": null }, "geometry": { "type": "Point", "coordinates": [ -99.05719895936214, 19.342955754553039, 0.0 ] } },
{ "type": "Feature", "properties": { "CVE_EST": "TROLE10E03", "circuito": null, "SISTEMA": "STE Trolebús Elevado", "NOMBRE": "Deportivo Santa Cruz", "TIPO": "Intermedia", "LINEA": "10", "ALCALDIAS": "Iztapalapa", "Ramp_s_rue": null }, "geometry": { "type": "Point", "coordinates": [ -99.048683851945256, 19.342486399498267, 0.0 ] } },
{ "type": "Feature", "properties": { "CVE_EST": "TROLE10E04", "circuito": null, "SISTEMA": "STE Trolebús Elevado", "NOMBRE": "Meyehualco", "TIPO": "Intermedia", "LINEA": "10", "ALCALDIAS": "Iztapalapa", "Ramp_s_rue": null }, "geometry": { "type": "Point", "coordinates": [ -99.041360439250127, 19.343179883005419, 0.0 ] } },
{ "type": "Feature", "properties": { "CVE_EST": "TROLE10E05", "circuito": null, "SISTEMA": "STE Trolebús Elevado", "NOMBRE": "Papalotl", "TIPO": "Intermedia", "LINEA": "10", "ALCALDIAS": "Iztapalapa", "Ramp_s_rue": null }, "geometry": { "type": "Point", "coordinates": [ -99.033525460666311, 19.343917264762794, 0.0 ] } },
{ "type": "Feature", "properties": { "CVE_EST": "TROLE10E06", "circuito": null, "SISTEMA": "STE Trolebús Elevado", "NOMBRE": "Aztahuacán", "TIPO": "Intermedia", "LINEA": "10", "ALCALDIAS": "Iztapalapa", "Ramp_s_rue": null }, "geometry": { "type": "Point", "coordinates": [ -99.026067640722005, 19.344672224280192, 0.0 ] } },
{ "type": "Feature", "properties": { "CVE_EST": "TROLE10E07", "circuito": null, "SISTEMA": "STE Trolebús Elevado", "NOMBRE": "Atzintlí", "TIPO": "Intermedia", "LINEA": "10", "ALCALDIAS": "Iztapalapa", "Ramp_s_rue": null }, "geometry": { "type": "Point", "coordinates": [ -99.021614538698302, 19.345141492319652, 0.0 ] } },
{ "type": "Feature", "properties": { "CVE_EST": "TROLE10E08", "circuito": null, "SISTEMA": "STE Trolebús Elevado", "NOMBRE": "Iztahuatzin", "TIPO": "Intermedia", "LINEA": "10", "ALCALDIAS": "Iztapalapa", "Ramp_s_rue": null }, "geometry": { "type": "Point", "coordinates": [ -99.018461508953735, 19.348679840975834, 0.0 ] } },
{ "type": "Feature", "properties": { "CVE_EST": "TROLE10E09", "circuito": null, "SISTEMA": "STE Trolebús Elevado", "NOMBRE": "Tecoloxtitlán", "TIPO": "Intermedia", "LINEA": "10", "ALCALDIAS": "Iztapalapa", "Ramp_s_rue": null }, "geometry": { "type": "Point", "coordinates": [ -99.015843545342889, 19.352009624920171, 0.0 ] } },
{ "type": "Feature", "properties": { "CVE_EST": "TROLE10E10", "circuito": null, "SISTEMA": "STE Trolebús Elevado", "NOMBRE": "Acatitlán", "TIPO": "Intermedia", "LINEA": "10", "ALCALDIAS": "Iztapalapa", "Ramp_s_rue": null }, "geometry": { "type": "Point", "coordinates": [ -99.008150630388599, 19.355248764754499, 0.0 ] } },
{ "type": "Feature", "properties": { "CVE_EST": "TROLE10E11", "circuito": null, "SISTEMA": "STE Trolebús Elevado", "NOMBRE": "Acahualtepec", "TIPO": "Intermedia", "LINEA": "10", "ALCALDIAS": "Iztapalapa", "Ramp_s_rue": null }, "geometry": { "type": "Point", "coordinates": [ -99.001655734024979, 19.357584850305319, 0.0 ] } },
{ "type": "Feature", "properties": { "CVE_EST": "TROLE10E12", "circuito": null, "SISTEMA": "STE Trolebús Elevado", "NOMBRE": "Santa Marta", "TIPO": "Terminal", "LINEA": "10", "ALCALDIAS": "Iztapalapa", "Ramp_s_rue": null }, "geometry": { "type": "Point", "coordinates": [ -98.995231391808289, 19.360315347801709, 0.0 ] } },
{ "type": "Feature", "properties": { "CVE_EST": "TROLE01I01", "circuito": null, "SISTEMA": "STE Trolebús", "NOMBRE": "Central del Norte", "TIPO": "Terminal", "LINEA": "01", "ALCALDIAS": "Gustavo A. Madero", "Ramp_s_rue": "Sí" }, "geometry": { "type": "Point", "coordinates": [ -99.140384684940329, 19.479423418112308, 0.0 ] } },
{ "type": "Feature", "properties": { "CVE_EST": "TROLE01I02", "circuito": null, "SISTEMA": "STE Trolebús", "NOMBRE": "CCH Vallejo", "TIPO": "Intermedia", "LINEA": "01", "ALCALDIAS": "Gustavo A. Madero", "Ramp_s_rue": "Sí" }, "geometry": { "type": "Point", "coordinates": [ -99.142166082956706, 19.483922806472723, 0.0 ] } },
{ "type": "Feature", "properties": { "CVE_EST": "TROLE01I03", "circuito": null, "SISTEMA": "STE Trolebús", "NOMBRE": "Instituto del Petróleo N", "TIPO": "Intermedia", "LINEA": "01", "ALCALDIAS": "Gustavo A. Madero", "Ramp_s_rue": "Sí" }, "geometry": { "type": "Point", "coordinates": [ -99.143982137265738, 19.488620774999337, 0.0 ] } },
{ "type": "Feature", "properties": { "CVE_EST": "TROLE01I04", "circuito": null, "SISTEMA": "STE Trolebús", "NOMBRE": "Montevideo", "TIPO": "Transbordo", "LINEA": "01", "ALCALDIAS": "Gustavo A. Madero", "Ramp_s_rue": "Sí" }, "geometry": { "type": "Point", "coordinates": [ -99.145698705650091, 19.492955647280741, 0.0 ] } },
{ "type": "Feature", "properties": { "CVE_EST": "TROLE01I05", "circuito": null, "SISTEMA": "STE Trolebús", "NOMBRE": "U.H. Lindavista-Vallejo", "TIPO": "Transbordo", "LINEA": "01", "ALCALDIAS": "Gustavo A. Madero", "Ramp_s_rue": "Sí" }, "geometry": { "type": "Point", "coordinates": [ -99.146269994720569, 19.492168289757629, 0.0 ] } },
{ "type": "Feature", "properties": { "CVE_EST": "TROLE01I06", "circuito": null, "SISTEMA": "STE Trolebús", "NOMBRE": "Instituto del Petróleo S", "TIPO": "Intermedia", "LINEA": "01", "ALCALDIAS": "Gustavo A. Madero", "Ramp_s_rue": "Sí" }, "geometry": { "type": "Point", "coordinates": [ -99.144849401487605, 19.48860728264896, 0.0 ] } },
{ "type": "Feature", "properties": { "CVE_EST": "TROLE01I07", "circuito": null, "SISTEMA": "STE Trolebús", "NOMBRE": "Poniente 128", "TIPO": "Intermedia", "LINEA": "01", "ALCALDIAS": "Gustavo A. Madero", "Ramp_s_rue": "Sí" }, "geometry": { "type": "Point", "coordinates": [ -99.144242936461836, 19.487042588475383, 0.0 ] } },
{ "type": "Feature", "properties": { "CVE_EST": "TROLE01I08", "circuito": null, "SISTEMA": "STE Trolebús", "NOMBRE": "Tesoreria", "TIPO": "Intermedia", "LINEA": "01", "ALCALDIAS": "Gustavo A. Madero", "Ramp_s_rue": "Sí" }, "geometry": { "type": "Point", "coordinates": [ -99.143612013758016, 19.485424638892543, 0.0 ] } },
{ "type": "Feature", "properties": { "CVE_EST": "TROLE01I09", "circuito": null, "SISTEMA": "STE Trolebús", "NOMBRE": "Poniente 118", "TIPO": "Intermedia", "LINEA": "01", "ALCALDIAS": "Gustavo A. Madero", "Ramp_s_rue": "Sí" }, "geometry": { "type": "Point", "coordinates": [ -99.141664994905767, 19.480520149326075, 0.0 ] } },
{ "type": "Feature", "properties": { "CVE_EST": "TROLE01I10", "circuito": null, "SISTEMA": "STE Trolebús", "NOMBRE": "Poniente 112", "TIPO": "Intermedia", "LINEA": "01", "ALCALDIAS": "Gustavo A. Madero", "Ramp_s_rue": "Sí" }, "geometry": { "type": "Point", "coordinates": [ -99.140392939586491, 19.477306977653946, 0.0 ] } },
{ "type": "Feature", "properties": { "CVE_EST": "TROLE01I11", "circuito": null, "SISTEMA": "STE Trolebús", "NOMBRE": "Poniente 106", "TIPO": "Intermedia", "LINEA": "01", "ALCALDIAS": "Gustavo A. Madero", "Ramp_s_rue": "Sí" }, "geometry": { "type": "Point", "coordinates": [ -99.138723619782326, 19.473117713709456, 0.0 ] } },
{ "type": "Feature", "properties": { "CVE_EST": "TROLE01I12", "circuito": null, "SISTEMA": "STE Trolebús", "NOMBRE": "La Raza", "TIPO": "Intermedia", "LINEA": "01", "ALCALDIAS": "Gustavo A. Madero", "Ramp_s_rue": "Sí" }, "geometry": { "type": "Point", "coordinates": [ -99.136731143763441, 19.4696332746949, 0.0 ] } },
{ "type": "Feature", "properties": { "CVE_EST": "TROLE01I13", "circuito": null, "SISTEMA": "STE Trolebús", "NOMBRE": "Río Consulado", "TIPO": "Intermedia", "LINEA": "01", "ALCALDIAS": "Gustavo A. Madero", "Ramp_s_rue": "Sí" }, "geometry": { "type": "Point", "coordinates": [ -99.137579918008171, 19.465594176871321, 0.0 ] } },
{ "type": "Feature", "properties": { "CVE_EST": "TROLE01I14", "circuito": null, "SISTEMA": "STE Trolebús", "NOMBRE": "Felipe Villanueva", "TIPO": "Intermedia", "LINEA": "01", "ALCALDIAS": "Cuauhtémoc", "Ramp_s_rue": "Sí" }, "geometry": { "type": "Point", "coordinates": [ -99.137612916407932, 19.463813786582708, 0.0 ] } },
{ "type": "Feature", "properties": { "CVE_EST": "TROLE01I15", "circuito": null, "SISTEMA": "STE Trolebús", "NOMBRE": "Chopin", "TIPO": "Intermedia", "LINEA": "01", "ALCALDIAS": "Cuauhtémoc", "Ramp_s_rue": "Sí" }, "geometry": { "type": "Point", "coordinates": [ -99.137729757876741, 19.461165609590541, 0.0 ] } },
{ "type": "Feature", "properties": { "CVE_EST": "TROLE01I16", "circuito": null, "SISTEMA": "STE Trolebús", "NOMBRE": "Granados", "TIPO": "Intermedia", "LINEA": "01", "ALCALDIAS": "Cuauhtémoc", "Ramp_s_rue": "Sí" }, "geometry": { "type": "Point", "coordinates": [ -99.137905418943816, 19.45756100435235, 0.0 ] } },
{ "type": "Feature", "properties": { "CVE_EST": "TROLE01I17", "circuito": null, "SISTEMA": "STE Trolebús", "NOMBRE": "Manuel González", "TIPO": "Intermedia", "LINEA": "01", "ALCALDIAS": "Cuauhtémoc", "Ramp_s_rue": "Sí" }, "geometry": { "type": "Point", "coordinates": [ -99.138341854083791, 19.455194892634204, 0.0 ] } },
{ "type": "Feature", "properties": { "CVE_EST": "TROLE01I18", "circuito": null, "SISTEMA": "STE Trolebús", "NOMBRE": "Flores Magón", "TIPO": "Intermedia", "LINEA": "01", "ALCALDIAS": "Cuauhtémoc", "Ramp_s_rue": "Sí" }, "geometry": { "type": "Point", "coordinates": [ -99.138464687999942, 19.450191786000062, 0.0 ] } },
{ "type": "Feature", "properties": { "CVE_EST": "TROLE01I19", "circuito": null, "SISTEMA": "STE Trolebús", "NOMBRE": "Luna", "TIPO": "Intermedia", "LINEA": "01", "ALCALDIAS": "Cuauhtémoc", "Ramp_s_rue": "Sí" }, "geometry": { "type": "Point", "coordinates": [ -99.138790890685698, 19.447990668523033, 0.0 ] } },
{ "type": "Feature", "properties": { "CVE_EST": "TROLE01I20", "circuito": null, "SISTEMA": "STE Trolebús", "NOMBRE": "República de Perú", "TIPO": "Intermedia", "LINEA": "01", "ALCALDIAS": "Cuauhtémoc", "Ramp_s_rue": "Sí" }, "geometry": { "type": "Point", "coordinates": [ -99.140066202665608, 19.439935685362901, 0.0 ] } },
{ "type": "Feature", "properties": { "CVE_EST": "TROLE01I21", "circuito": null, "SISTEMA": "STE Trolebús", "NOMBRE": "Bellas Artes", "TIPO": "Intermedia", "LINEA": "01", "ALCALDIAS": "Cuauhtémoc", "Ramp_s_rue": "Sí" }, "geometry": { "type": "Point", "coordinates": [ -99.140499784162699, 19.437126226114088, 0.0 ] } },
{ "type": "Feature", "properties": { "CVE_EST": "TROLE01I22", "circuito": null, "SISTEMA": "STE Trolebús", "NOMBRE": "Independencia", "TIPO": "Intermedia", "LINEA": "01", "ALCALDIAS": "Cuauhtémoc", "Ramp_s_rue": "Sí" }, "geometry": { "type": "Point", "coordinates": [ -99.141155909430111, 19.433027928143161, 0.0 ] } },
{ "type": "Feature", "properties": { "CVE_EST": "TROLE01I23", "circuito": null, "SISTEMA": "STE Trolebús", "NOMBRE": "República de Uruguay", "TIPO": "Intermedia", "LINEA": "01", "ALCALDIAS": "Cuauhtémoc", "Ramp_s_rue": "Sí" }, "geometry": { "type": "Point", "coordinates": [ -99.14140154132879, 19.431404632807602, 0.0 ] } },
{ "type": "Feature", "properties": { "CVE_EST": "TROLE01I24", "circuito": null, "SISTEMA": "STE Trolebús", "NOMBRE": "Vizcaínas", "TIPO": "Intermedia", "LINEA": "01", "ALCALDIAS": "Cuauhtémoc", "Ramp_s_rue": "Sí" }, "geometry": { "type": "Point", "coordinates": [ -99.141706812514371, 19.42925370894438, 0.0 ] } },
{ "type": "Feature", "properties": { "CVE_EST": "TROLE01I25", "circuito": null, "SISTEMA": "STE Trolebús", "NOMBRE": "Salto del Agua", "TIPO": "Intermedia", "LINEA": "01", "ALCALDIAS": "Cuauhtémoc", "Ramp_s_rue": "Sí" }, "geometry": { "type": "Point", "coordinates": [ -99.141996217314983, 19.427387132551619, 0.0 ] } },
{ "type": "Feature", "properties": { "CVE_EST": "TROLE01I26", "circuito": null, "SISTEMA": "STE Trolebús", "NOMBRE": "Fray Servando Teresa de Mier", "TIPO": "Intermedia", "LINEA": "01", "ALCALDIAS": "Cuauhtémoc", "Ramp_s_rue": "Sí" }, "geometry": { "type": "Point", "coordinates": [ -99.142569003957476, 19.424955494638802, 0.0 ] } },
{ "type": "Feature", "properties": { "CVE_EST": "TROLE01I27", "circuito": null, "SISTEMA": "STE Trolebús", "NOMBRE": "Dr. Pascua", "TIPO": "Intermedia", "LINEA": "01", "ALCALDIAS": "Cuauhtémoc", "Ramp_s_rue": "Sí" }, "geometry": { "type": "Point", "coordinates": [ -99.143172126777941, 19.422462260806309, 0.0 ] } },
{ "type": "Feature", "properties": { "CVE_EST": "TROLE01I28", "circuito": null, "SISTEMA": "STE Trolebús", "NOMBRE": "Doctores", "TIPO": "Intermedia", "LINEA": "01", "ALCALDIAS": "Cuauhtémoc", "Ramp_s_rue": "Sí" }, "geometry": { "type": "Point", "coordinates": [ -99.143313313898432, 19.421097831769011, 0.0 ] } },
{ "type": "Feature", "properties": { "CVE_EST": "TROLE01I29", "circuito": null, "SISTEMA": "STE Trolebús", "NOMBRE": "Monumento a Lázaro Cárdenas", "TIPO": "Intermedia", "LINEA": "01", "ALCALDIAS": "Cuauhtémoc", "Ramp_s_rue": "Sí" }, "geometry": { "type": "Point", "coordinates": [ -99.143517301722184, 19.419126458813619, 0.0 ] } },
{ "type": "Feature", "properties": { "CVE_EST": "TROLE01I30", "circuito": null, "SISTEMA": "STE Trolebús", "NOMBRE": "Manuel José Othón", "TIPO": "Transbordo", "LINEA": "01", "ALCALDIAS": "Cuauhtémoc", "Ramp_s_rue": "Sí" }, "geometry": { "type": "Point", "coordinates": [ -99.143958466810673, 19.414804398290908, 0.0 ] } },
{ "type": "Feature", "properties": { "CVE_EST": "TROLE01I31", "circuito": null, "SISTEMA": "STE Trolebús", "NOMBRE": "Obrera", "TIPO": "Intermedia", "LINEA": "01", "ALCALDIAS": "Cuauhtémoc", "Ramp_s_rue": "Sí" }, "geometry": { "type": "Point", "coordinates": [ -99.144225646950204, 19.412184594329986, 0.0 ] } },
{ "type": "Feature", "properties": { "CVE_EST": "TROLE01I32", "circuito": null, "SISTEMA": "STE Trolebús", "NOMBRE": "Lázaro Cárdenas", "TIPO": "Intermedia", "LINEA": "01", "ALCALDIAS": "Cuauhtémoc", "Ramp_s_rue": "Sí" }, "geometry": { "type": "Point", "coordinates": [ -99.144684930098151, 19.407619838685601, 0.0 ] } },
{ "type": "Feature", "properties": { "CVE_EST": "TROLE01I33", "circuito": null, "SISTEMA": "STE Trolebús", "NOMBRE": "Viaducto", "TIPO": "Intermedia", "LINEA": "01", "ALCALDIAS": "Benito Juárez", "Ramp_s_rue": "Sí" }, "geometry": { "type": "Point", "coordinates": [ -99.145160984416606, 19.403002586088583, 0.0 ] } },
{ "type": "Feature", "properties": { "CVE_EST": "TROLE01I34", "circuito": null, "SISTEMA": "STE Trolebús", "NOMBRE": "Morena", "TIPO": "Intermedia", "LINEA": "01", "ALCALDIAS": "Benito Juárez", "Ramp_s_rue": "Sí" }, "geometry": { "type": "Point", "coordinates": [ -99.14573426992412, 19.398347251779008, 0.0 ] } },
{ "type": "Feature", "properties": { "CVE_EST": "TROLE01I35", "circuito": null, "SISTEMA": "STE Trolebús", "NOMBRE": "Centro SCOP", "TIPO": "Intermedia", "LINEA": "01", "ALCALDIAS": "Benito Juárez", "Ramp_s_rue": "Sí" }, "geometry": { "type": "Point", "coordinates": [ -99.146114580947554, 19.395424713426657, 0.0 ] } },
{ "type": "Feature", "properties": { "CVE_EST": "TROLE01I36", "circuito": null, "SISTEMA": "STE Trolebús", "NOMBRE": "Cumbres de Acultzingo", "TIPO": "Intermedia", "LINEA": "01", "ALCALDIAS": "Benito Juárez", "Ramp_s_rue": "Sí" }, "geometry": { "type": "Point", "coordinates": [ -99.146461384800844, 19.392767558255919, 0.0 ] } },
{ "type": "Feature", "properties": { "CVE_EST": "TROLE01I37", "circuito": null, "SISTEMA": "STE Trolebús", "NOMBRE": "Luz Saviñón", "TIPO": "Intermedia", "LINEA": "01", "ALCALDIAS": "Benito Juárez", "Ramp_s_rue": "Sí" }, "geometry": { "type": "Point", "coordinates": [ -99.146807132812569, 19.390089802217148, 0.0 ] } },
{ "type": "Feature", "properties": { "CVE_EST": "TROLE01I38", "circuito": null, "SISTEMA": "STE Trolebús", "NOMBRE": "Cumbres de Maltrata", "TIPO": "Intermedia", "LINEA": "01", "ALCALDIAS": "Benito Juárez", "Ramp_s_rue": "Sí" }, "geometry": { "type": "Point", "coordinates": [ -99.147175935321286, 19.387221186647533, 0.0 ] } },
{ "type": "Feature", "properties": { "CVE_EST": "TROLE01I39", "circuito": null, "SISTEMA": "STE Trolebús", "NOMBRE": "Eugenia", "TIPO": "Intermedia", "LINEA": "01", "ALCALDIAS": "Benito Juárez", "Ramp_s_rue": "Sí" }, "geometry": { "type": "Point", "coordinates": [ -99.147515146565183, 19.384246285863217, 0.0 ] } },
{ "type": "Feature", "properties": { "CVE_EST": "TROLE01I40", "circuito": null, "SISTEMA": "STE Trolebús", "NOMBRE": "Ángel Urraza", "TIPO": "Intermedia", "LINEA": "01", "ALCALDIAS": "Benito Juárez", "Ramp_s_rue": "Sí" }, "geometry": { "type": "Point", "coordinates": [ -99.148115293998274, 19.379979066053235, 0.0 ] } },
{ "type": "Feature", "properties": { "CVE_EST": "TROLE01I41", "circuito": null, "SISTEMA": "STE Trolebús", "NOMBRE": "Matías Romero", "TIPO": "Intermedia", "LINEA": "01", "ALCALDIAS": "Benito Juárez", "Ramp_s_rue": "Sí" }, "geometry": { "type": "Point", "coordinates": [ -99.148539181842878, 19.377836013481343, 0.0 ] } },
{ "type": "Feature", "properties": { "CVE_EST": "TROLE01I42", "circuito": null, "SISTEMA": "STE Trolebús", "NOMBRE": "Miguel Laurent", "TIPO": "Intermedia", "LINEA": "01", "ALCALDIAS": "Benito Juárez", "Ramp_s_rue": "Sí" }, "geometry": { "type": "Point", "coordinates": [ -99.149444021120289, 19.37315743091267, 0.0 ] } },
{ "type": "Feature", "properties": { "CVE_EST": "TROLE01I43", "circuito": null, "SISTEMA": "STE Trolebús", "NOMBRE": "Municipio Libre", "TIPO": "Transbordo", "LINEA": "01", "ALCALDIAS": "Benito Juárez", "Ramp_s_rue": "Sí" }, "geometry": { "type": "Point", "coordinates": [ -99.150092920838659, 19.36956857664147, 0.0 ] } },
{ "type": "Feature", "properties": { "CVE_EST": "TROLE01I44", "circuito": null, "SISTEMA": "STE Trolebús", "NOMBRE": "Emiliano Zapata", "TIPO": "Transbordo", "LINEA": "01", "ALCALDIAS": "Benito Juárez", "Ramp_s_rue": "Sí" }, "geometry": { "type": "Point", "coordinates": [ -99.15069104051625, 19.366095633427157, 0.0 ] } },
{ "type": "Feature", "properties": { "CVE_EST": "TROLE01I45", "circuito": null, "SISTEMA": "STE Trolebús", "NOMBRE": "Popocatépetl", "TIPO": "Intermedia", "LINEA": "01", "ALCALDIAS": "Benito Juárez", "Ramp_s_rue": "Sí" }, "geometry": { "type": "Point", "coordinates": [ -99.151371739842105, 19.362147599447372, 0.0 ] } },
{ "type": "Feature", "properties": { "CVE_EST": "TROLE01I46", "circuito": null, "SISTEMA": "STE Trolebús", "NOMBRE": "Ajusco", "TIPO": "Intermedia", "LINEA": "01", "ALCALDIAS": "Benito Juárez", "Ramp_s_rue": "Sí" }, "geometry": { "type": "Point", "coordinates": [ -99.152446896586483, 19.358650300028014, 0.0 ] } },
{ "type": "Feature", "properties": { "CVE_EST": "TROLE01I47", "circuito": null, "SISTEMA": "STE Trolebús", "NOMBRE": "Xicoténcatl", "TIPO": "Intermedia", "LINEA": "01", "ALCALDIAS": "Coyoacán", "Ramp_s_rue": "Sí" }, "geometry": { "type": "Point", "coordinates": [ -99.15237192997138, 19.354692509793502, 0.0 ] } },
{ "type": "Feature", "properties": { "CVE_EST": "TROLE01I48", "circuito": null, "SISTEMA": "STE Trolebús", "NOMBRE": "Hidalgo", "TIPO": "Intermedia", "LINEA": "01", "ALCALDIAS": "Coyoacán", "Ramp_s_rue": "Sí" }, "geometry": { "type": "Point", "coordinates": [ -99.151536461676798, 19.351749905558044, 0.0 ] } },
{ "type": "Feature", "properties": { "CVE_EST": "TROLE01I49", "circuito": null, "SISTEMA": "STE Trolebús", "NOMBRE": "América", "TIPO": "Intermedia", "LINEA": "01", "ALCALDIAS": "Coyoacán", "Ramp_s_rue": "Sí" }, "geometry": { "type": "Point", "coordinates": [ -99.149871398965757, 19.345887244099639, 0.0 ] } },
{ "type": "Feature", "properties": { "CVE_EST": "TROLE01I50", "circuito": null, "SISTEMA": "STE Trolebús", "NOMBRE": "Central", "TIPO": "Intermedia", "LINEA": "01", "ALCALDIAS": "Coyoacán", "Ramp_s_rue": "Sí" }, "geometry": { "type": "Point", "coordinates": [ -99.147476543453152, 19.342343763850312, 0.0 ] } },
{ "type": "Feature", "properties": { "CVE_EST": "TROLE01I51", "circuito": null, "SISTEMA": "STE Trolebús", "NOMBRE": "Cerro Huitzilac", "TIPO": "Intermedia", "LINEA": "01", "ALCALDIAS": "Coyoacán", "Ramp_s_rue": "Sí" }, "geometry": { "type": "Point", "coordinates": [ -99.14144667495826, 19.341574703343625, 0.0 ] } },
{ "type": "Feature", "properties": { "CVE_EST": "TROLE01I52", "circuito": null, "SISTEMA": "STE Trolebús", "NOMBRE": "Central del Sur", "TIPO": "Terminal / Transbordo", "LINEA": "01", "ALCALDIAS": "Coyoacán", "Ramp_s_rue": "Sí" }, "geometry": { "type": "Point", "coordinates": [ -99.139088633244342, 19.341102089629821, 0.0 ] } },
{ "type": "Feature", "properties": { "CVE_EST": "TROLE01R01", "circuito": null, "SISTEMA": "STE Trolebús", "NOMBRE": "Tasqueña", "TIPO": "Termnal/Transbordo", "LINEA": "01", "ALCALDIAS": "Coyoacán", "Ramp_s_rue": "Sí" }, "geometry": { "type": "Point", "coordinates": [ -99.140811092354198, 19.341717270891856, 0.0 ] } },
{ "type": "Feature", "properties": { "CVE_EST": "TROLE01R02", "circuito": null, "SISTEMA": "STE Trolebús", "NOMBRE": "División del Norte", "TIPO": "Transbordo", "LINEA": "01", "ALCALDIAS": "Coyoacán", "Ramp_s_rue": "Sí" }, "geometry": { "type": "Point", "coordinates": [ -99.148586178501901, 19.342735023445677, 0.0 ] } },
{ "type": "Feature", "properties": { "CVE_EST": "TROLE01R03", "circuito": null, "SISTEMA": "STE Trolebús", "NOMBRE": "América", "TIPO": "Intermedia", "LINEA": "01", "ALCALDIAS": "Coyoacán", "Ramp_s_rue": "Sí" }, "geometry": { "type": "Point", "coordinates": [ -99.14945924047656, 19.345226553860563, 0.0 ] } },
{ "type": "Feature", "properties": { "CVE_EST": "TROLE01R04", "circuito": null, "SISTEMA": "STE Trolebús", "NOMBRE": "Irlanda", "TIPO": "Intermedia", "LINEA": "01", "ALCALDIAS": "Coyoacán", "Ramp_s_rue": "Sí" }, "geometry": { "type": "Point", "coordinates": [ -99.150750943700928, 19.349777332012859, 0.0 ] } },
{ "type": "Feature", "properties": { "CVE_EST": "TROLE01R05", "circuito": null, "SISTEMA": "STE Trolebús", "NOMBRE": "Xicoténcatl", "TIPO": "Intermedia", "LINEA": "01", "ALCALDIAS": "Coyoacán", "Ramp_s_rue": "Sí" }, "geometry": { "type": "Point", "coordinates": [ -99.152212586624245, 19.354911908025024, 0.0 ] } },
{ "type": "Feature", "properties": { "CVE_EST": "TROLE01R06", "circuito": null, "SISTEMA": "STE Trolebús", "NOMBRE": "Churubusco", "TIPO": "Intermedia", "LINEA": "01", "ALCALDIAS": "Coyoacán", "Ramp_s_rue": "Sí" }, "geometry": { "type": "Point", "coordinates": [ -99.152758610858712, 19.356945706000985, 0.0 ] } },
{ "type": "Feature", "properties": { "CVE_EST": "TROLE01R07", "circuito": null, "SISTEMA": "STE Trolebús", "NOMBRE": "Ajusco", "TIPO": "Intermedia", "LINEA": "01", "ALCALDIAS": "Benito Juárez", "Ramp_s_rue": "Sí" }, "geometry": { "type": "Point", "coordinates": [ -99.151786888311563, 19.359083750901945, 0.0 ] } },
{ "type": "Feature", "properties": { "CVE_EST": "TROLE01R08", "circuito": null, "SISTEMA": "STE Trolebús", "NOMBRE": "Popocatépetl", "TIPO": "Intermedia", "LINEA": "01", "ALCALDIAS": "Benito Juárez", "Ramp_s_rue": "Sí" }, "geometry": { "type": "Point", "coordinates": [ -99.151248695534434, 19.36194942866484, 0.0 ] } },
{ "type": "Feature", "properties": { "CVE_EST": "TROLE01R09", "circuito": null, "SISTEMA": "STE Trolebús", "NOMBRE": "Emiliano Zapata", "TIPO": "Transbordo", "LINEA": "01", "ALCALDIAS": "Benito Juárez", "Ramp_s_rue": "Sí" }, "geometry": { "type": "Point", "coordinates": [ -99.150495448134279, 19.366317686880176, 0.0 ] } },
{ "type": "Feature", "properties": { "CVE_EST": "TROLE01R10", "circuito": null, "SISTEMA": "STE Trolebús", "NOMBRE": "Municipio Libre", "TIPO": "Transbordo", "LINEA": "01", "ALCALDIAS": "Benito Juárez", "Ramp_s_rue": "Sí" }, "geometry": { "type": "Point", "coordinates": [ -99.150072747205215, 19.368778407143704, 0.0 ] } },
{ "type": "Feature", "properties": { "CVE_EST": "TROLE01R11", "circuito": null, "SISTEMA": "STE Trolebús", "NOMBRE": "Miguel Laurent", "TIPO": "Intermedia", "LINEA": "01", "ALCALDIAS": "Benito Juárez", "Ramp_s_rue": "Sí" }, "geometry": { "type": "Point", "coordinates": [ -99.149378748744354, 19.372762684719799, 0.0 ] } },
{ "type": "Feature", "properties": { "CVE_EST": "TROLE01R12", "circuito": null, "SISTEMA": "STE Trolebús", "NOMBRE": "Ángel Urraza", "TIPO": "Intermedia", "LINEA": "01", "ALCALDIAS": "Benito Juárez", "Ramp_s_rue": "Sí" }, "geometry": { "type": "Point", "coordinates": [ -99.148196174425735, 19.378791208995278, 0.0 ] } },
{ "type": "Feature", "properties": { "CVE_EST": "TROLE01R13", "circuito": null, "SISTEMA": "STE Trolebús", "NOMBRE": "Kiff", "TIPO": "Intermedia", "LINEA": "01", "ALCALDIAS": "Benito Juárez", "Ramp_s_rue": "Sí" }, "geometry": { "type": "Point", "coordinates": [ -99.147733436337788, 19.381125045102259, 0.0 ] } },
{ "type": "Feature", "properties": { "CVE_EST": "TROLE01R14", "circuito": null, "SISTEMA": "STE Trolebús", "NOMBRE": "Eugenia", "TIPO": "Intermedia", "LINEA": "01", "ALCALDIAS": "Benito Juárez", "Ramp_s_rue": "Sí" }, "geometry": { "type": "Point", "coordinates": [ -99.147358598335103, 19.384230982598613, 0.0 ] } },
{ "type": "Feature", "properties": { "CVE_EST": "TROLE01R15", "circuito": null, "SISTEMA": "STE Trolebús", "NOMBRE": "Cumbres de Maltrata", "TIPO": "Intermedia", "LINEA": "01", "ALCALDIAS": "Benito Juárez", "Ramp_s_rue": "Sí" }, "geometry": { "type": "Point", "coordinates": [ -99.14714968694804, 19.386081313285104, 0.0 ] } },
{ "type": "Feature", "properties": { "CVE_EST": "TROLE01R16", "circuito": null, "SISTEMA": "STE Trolebús", "NOMBRE": "Luz Saviñón", "TIPO": "Intermedia", "LINEA": "01", "ALCALDIAS": "Benito Juárez", "Ramp_s_rue": "Sí" }, "geometry": { "type": "Point", "coordinates": [ -99.146855751585363, 19.388535819237099, 0.0 ] } },
{ "type": "Feature", "properties": { "CVE_EST": "TROLE01R17", "circuito": null, "SISTEMA": "STE Trolebús", "NOMBRE": "Cumbres de Acultzingo", "TIPO": "Intermedia", "LINEA": "01", "ALCALDIAS": "Benito Juárez", "Ramp_s_rue": "Sí" }, "geometry": { "type": "Point", "coordinates": [ -99.146355364304185, 19.392379670770467, 0.0 ] } },
{ "type": "Feature", "properties": { "CVE_EST": "TROLE01R18", "circuito": null, "SISTEMA": "STE Trolebús", "NOMBRE": "Centro SCOP", "TIPO": "Intermedia", "LINEA": "01", "ALCALDIAS": "Benito Juárez", "Ramp_s_rue": "Sí" }, "geometry": { "type": "Point", "coordinates": [ -99.146093989970453, 19.394398327088108, 0.0 ] } },
{ "type": "Feature", "properties": { "CVE_EST": "TROLE01R19", "circuito": null, "SISTEMA": "STE Trolebús", "NOMBRE": "Morena", "TIPO": "Intermedia", "LINEA": "01", "ALCALDIAS": "Benito Juárez", "Ramp_s_rue": "Sí" }, "geometry": { "type": "Point", "coordinates": [ -99.145639855301042, 19.397912076591794, 0.0 ] } },
{ "type": "Feature", "properties": { "CVE_EST": "TROLE01R20", "circuito": null, "SISTEMA": "STE Trolebús", "NOMBRE": "Viaducto", "TIPO": "Intermedia", "LINEA": "01", "ALCALDIAS": "Benito Juárez", "Ramp_s_rue": "Sí" }, "geometry": { "type": "Point", "coordinates": [ -99.144973012762534, 19.403338575642227, 0.0 ] } },
{ "type": "Feature", "properties": { "CVE_EST": "TROLE01R21", "circuito": null, "SISTEMA": "STE Trolebús", "NOMBRE": "Lázaro Cárdenas", "TIPO": "Intermedia", "LINEA": "01", "ALCALDIAS": "Cuauhtémoc", "Ramp_s_rue": "Sí" }, "geometry": { "type": "Point", "coordinates": [ -99.144601469353347, 19.406980118690303, 0.0 ] } },
{ "type": "Feature", "properties": { "CVE_EST": "TROLE01R22", "circuito": null, "SISTEMA": "STE Trolebús", "NOMBRE": "Antonio Solís", "TIPO": "Intermedia", "LINEA": "01", "ALCALDIAS": "Cuauhtémoc", "Ramp_s_rue": "Sí" }, "geometry": { "type": "Point", "coordinates": [ -99.144330061231756, 19.409650706595023, 0.0 ] } },
{ "type": "Feature", "properties": { "CVE_EST": "TROLE01R23", "circuito": null, "SISTEMA": "STE Trolebús", "NOMBRE": "Obrera", "TIPO": "Intermedia", "LINEA": "01", "ALCALDIAS": "Cuauhtémoc", "Ramp_s_rue": "Sí" }, "geometry": { "type": "Point", "coordinates": [ -99.143994277741456, 19.412954613964544, 0.0 ] } },
{ "type": "Feature", "properties": { "CVE_EST": "TROLE01R24", "circuito": null, "SISTEMA": "STE Trolebús", "NOMBRE": "Manuel José Othón", "TIPO": "Transbordo", "LINEA": "01", "ALCALDIAS": "Cuauhtémoc", "Ramp_s_rue": "Sí" }, "geometry": { "type": "Point", "coordinates": [ -99.143789764623548, 19.414980341055575, 0.0 ] } },
{ "type": "Feature", "properties": { "CVE_EST": "TROLE01R25", "circuito": null, "SISTEMA": "STE Trolebús", "NOMBRE": "Monumento a Lázaro Cárdenas", "TIPO": "Intermedia", "LINEA": "01", "ALCALDIAS": "Cuauhtémoc", "Ramp_s_rue": "Sí" }, "geometry": { "type": "Point", "coordinates": [ -99.143533832310453, 19.417504173531036, 0.0 ] } },
{ "type": "Feature", "properties": { "CVE_EST": "TROLE01R26", "circuito": null, "SISTEMA": "STE Trolebús", "NOMBRE": "Doctores", "TIPO": "Intermedia", "LINEA": "01", "ALCALDIAS": "Cuauhtémoc", "Ramp_s_rue": "Sí" }, "geometry": { "type": "Point", "coordinates": [ -99.143145321430254, 19.42126890057261, 0.0 ] } },
{ "type": "Feature", "properties": { "CVE_EST": "TROLE01R27", "circuito": null, "SISTEMA": "STE Trolebús", "NOMBRE": "Fray Servando Teresa de Mier", "TIPO": "Intermedia", "LINEA": "01", "ALCALDIAS": "Cuauhtémoc", "Ramp_s_rue": "Sí" }, "geometry": { "type": "Point", "coordinates": [ -99.14256414232824, 19.424352150272288, 0.0 ] } },
{ "type": "Feature", "properties": { "CVE_EST": "TROLE01R28", "circuito": null, "SISTEMA": "STE Trolebús", "NOMBRE": "Salto del Agua", "TIPO": "Intermedia", "LINEA": "01", "ALCALDIAS": "Cuauhtémoc", "Ramp_s_rue": "Sí" }, "geometry": { "type": "Point", "coordinates": [ -99.142059685847087, 19.426316386229992, 0.0 ] } },
{ "type": "Feature", "properties": { "CVE_EST": "TROLE01R29", "circuito": null, "SISTEMA": "STE Trolebús", "NOMBRE": "Vizcaínas", "TIPO": "Intermedia", "LINEA": "01", "ALCALDIAS": "Cuauhtémoc", "Ramp_s_rue": "Sí" }, "geometry": { "type": "Point", "coordinates": [ -99.141611298517375, 19.428785206603212, 0.0 ] } },
{ "type": "Feature", "properties": { "CVE_EST": "TROLE01R30", "circuito": null, "SISTEMA": "STE Trolebús", "NOMBRE": "República de Uruguay", "TIPO": "Intermedia", "LINEA": "01", "ALCALDIAS": "Cuauhtémoc", "Ramp_s_rue": "Sí" }, "geometry": { "type": "Point", "coordinates": [ -99.141298520487126, 19.431024920015574, 0.0 ] } },
{ "type": "Feature", "properties": { "CVE_EST": "TROLE01R31", "circuito": null, "SISTEMA": "STE Trolebús", "NOMBRE": "Francisco I. Madero", "TIPO": "Intermedia", "LINEA": "01", "ALCALDIAS": "Cuauhtémoc", "Ramp_s_rue": "Sí" }, "geometry": { "type": "Point", "coordinates": [ -99.140854952246485, 19.43395524678305, 0.0 ] } },
{ "type": "Feature", "properties": { "CVE_EST": "TROLE01R32", "circuito": null, "SISTEMA": "STE Trolebús", "NOMBRE": "Bellas Artes", "TIPO": "Intermedia", "LINEA": "01", "ALCALDIAS": "Cuauhtémoc", "Ramp_s_rue": "Sí" }, "geometry": { "type": "Point", "coordinates": [ -99.140415501350674, 19.436749156344106, 0.0 ] } },
{ "type": "Feature", "properties": { "CVE_EST": "TROLE01R33", "circuito": null, "SISTEMA": "STE Trolebús", "NOMBRE": "República de Perú", "TIPO": "Intermedia", "LINEA": "01", "ALCALDIAS": "Cuauhtémoc", "Ramp_s_rue": "Sí" }, "geometry": { "type": "Point", "coordinates": [ -99.140021090089178, 19.439230394604436, 0.0 ] } },
{ "type": "Feature", "properties": { "CVE_EST": "TROLE01R34", "circuito": null, "SISTEMA": "STE Trolebús", "NOMBRE": "Luna", "TIPO": "Intermedia", "LINEA": "01", "ALCALDIAS": "Cuauhtémoc", "Ramp_s_rue": "Sí" }, "geometry": { "type": "Point", "coordinates": [ -99.138712908555917, 19.447608599361029, 0.0 ] } },
{ "type": "Feature", "properties": { "CVE_EST": "TROLE01R35", "circuito": null, "SISTEMA": "STE Trolebús", "NOMBRE": "Flores Magón", "TIPO": "Intermedia", "LINEA": "01", "ALCALDIAS": "Cuauhtémoc", "Ramp_s_rue": "Sí" }, "geometry": { "type": "Point", "coordinates": [ -99.138459470409799, 19.449140463023571, 0.0 ] } },
{ "type": "Feature", "properties": { "CVE_EST": "TROLE01R36", "circuito": null, "SISTEMA": "STE Trolebús", "NOMBRE": "Manuel González", "TIPO": "Intermedia", "LINEA": "01", "ALCALDIAS": "Cuauhtémoc", "Ramp_s_rue": "Sí" }, "geometry": { "type": "Point", "coordinates": [ -99.138287922450374, 19.454010110052753, 0.0 ] } },
{ "type": "Feature", "properties": { "CVE_EST": "TROLE01R37", "circuito": null, "SISTEMA": "STE Trolebús", "NOMBRE": "Granados", "TIPO": "Intermedia", "LINEA": "01", "ALCALDIAS": "Cuauhtémoc", "Ramp_s_rue": "Sí" }, "geometry": { "type": "Point", "coordinates": [ -99.137771816754068, 19.457131976533397, 0.0 ] } },
{ "type": "Feature", "properties": { "CVE_EST": "TROLE01R38", "circuito": null, "SISTEMA": "STE Trolebús", "NOMBRE": "Chopin", "TIPO": "Intermedia", "LINEA": "01", "ALCALDIAS": "Cuauhtémoc", "Ramp_s_rue": "Sí" }, "geometry": { "type": "Point", "coordinates": [ -99.137595078746884, 19.460629897737565, 0.0 ] } },
{ "type": "Feature", "properties": { "CVE_EST": "TROLE01R39", "circuito": null, "SISTEMA": "STE Trolebús", "NOMBRE": "Felipe Villanueva", "TIPO": "Intermedia", "LINEA": "01", "ALCALDIAS": "Cuauhtémoc", "Ramp_s_rue": "Sí" }, "geometry": { "type": "Point", "coordinates": [ -99.137443915840848, 19.464137107491624, 0.0 ] } },
{ "type": "Feature", "properties": { "CVE_EST": "TROLE01R40", "circuito": null, "SISTEMA": "STE Trolebús", "NOMBRE": "Río Consulado", "TIPO": "Intermedia", "LINEA": "01", "ALCALDIAS": "Gustavo A. Madero", "Ramp_s_rue": "Sí" }, "geometry": { "type": "Point", "coordinates": [ -99.137338391969436, 19.465925104606161, 0.0 ] } },
{ "type": "Feature", "properties": { "CVE_EST": "TROLE01R41", "circuito": null, "SISTEMA": "STE Trolebús", "NOMBRE": "Poniente 112", "TIPO": "Intermedia", "LINEA": "01", "ALCALDIAS": "Gustavo A. Madero", "Ramp_s_rue": "Sí" }, "geometry": { "type": "Point", "coordinates": [ -99.13917402125341, 19.476385104764965, 0.0 ] } },
{ "type": "Feature", "properties": { "CVE_EST": "TROLE02R31", "circuito": null, "SISTEMA": "STE Trolebús", "NOMBRE": "Velódromo", "TIPO": "Intermedia", "LINEA": "02", "ALCALDIAS": "Venustiano Carranza", "Ramp_s_rue": "Sí" }, "geometry": { "type": "Point", "coordinates": [ -99.104610804930687, 19.40880344628134, 0.0 ] } },
{ "type": "Feature", "properties": { "CVE_EST": "TROLE02I07", "circuito": null, "SISTEMA": "STE Trolebús", "NOMBRE": "Fernando Iglesias", "TIPO": "Intermedia", "LINEA": "02", "ALCALDIAS": "Venustiano Carranza", "Ramp_s_rue": "Sí" }, "geometry": { "type": "Point", "coordinates": [ -99.108983242105424, 19.408391090229035, 0.0 ] } },
{ "type": "Feature", "properties": { "CVE_EST": "TROLE02I08", "circuito": null, "SISTEMA": "STE Trolebús", "NOMBRE": "Mixiuhca", "TIPO": "Intermedia", "LINEA": "02", "ALCALDIAS": "Venustiano Carranza", "Ramp_s_rue": "Sí" }, "geometry": { "type": "Point", "coordinates": [ -99.112538158900747, 19.408410022506285, 0.0 ] } },
{ "type": "Feature", "properties": { "CVE_EST": "TROLE02I09", "circuito": null, "SISTEMA": "STE Trolebús", "NOMBRE": "Industria", "TIPO": "Intermedia", "LINEA": "02", "ALCALDIAS": "Venustiano Carranza", "Ramp_s_rue": "Sí" }, "geometry": { "type": "Point", "coordinates": [ -99.115684978118253, 19.408716395497603, 0.0 ] } },
{ "type": "Feature", "properties": { "CVE_EST": "TROLE02I10", "circuito": null, "SISTEMA": "STE Trolebús", "NOMBRE": "Congreso de la Unión 1", "TIPO": "Intermedia", "LINEA": "02", "ALCALDIAS": "Venustiano Carranza", "Ramp_s_rue": "Sí" }, "geometry": { "type": "Point", "coordinates": [ -99.121330874308271, 19.409249370538241, 0.0 ] } },
{ "type": "Feature", "properties": { "CVE_EST": "TROLE02I11", "circuito": null, "SISTEMA": "STE Trolebús", "NOMBRE": "Jamaica", "TIPO": "Intermedia", "LINEA": "02", "ALCALDIAS": "Venustiano Carranza", "Ramp_s_rue": "Sí" }, "geometry": { "type": "Point", "coordinates": [ -99.121577956934289, 19.411125119363156, 0.0 ] } },
{ "type": "Feature", "properties": { "CVE_EST": "TROLE02I12", "circuito": null, "SISTEMA": "STE Trolebús", "NOMBRE": "Del Taller", "TIPO": "Intermedia", "LINEA": "02", "ALCALDIAS": "Venustiano Carranza", "Ramp_s_rue": "Sí" }, "geometry": { "type": "Point", "coordinates": [ -99.121284633021162, 19.413632016439561, 0.0 ] } },
{ "type": "Feature", "properties": { "CVE_EST": "TROLE02I13", "circuito": null, "SISTEMA": "STE Trolebús", "NOMBRE": "Torno", "TIPO": "Intermedia", "LINEA": "02", "ALCALDIAS": "Venustiano Carranza", "Ramp_s_rue": "Sí" }, "geometry": { "type": "Point", "coordinates": [ -99.124247397082954, 19.413640611820373, 0.0 ] } },
{ "type": "Feature", "properties": { "CVE_EST": "TROLE02I14", "circuito": null, "SISTEMA": "STE Trolebús", "NOMBRE": "Calzada de La Viga", "TIPO": "Intermedia", "LINEA": "02", "ALCALDIAS": "Venustiano Carranza", "Ramp_s_rue": "Sí" }, "geometry": { "type": "Point", "coordinates": [ -99.127584597635817, 19.413519883404735, 0.0 ] } },
{ "type": "Feature", "properties": { "CVE_EST": "TROLE02I15", "circuito": null, "SISTEMA": "STE Trolebús", "NOMBRE": "Clavijero", "TIPO": "Intermedia", "LINEA": "02", "ALCALDIAS": "Cuauhtémoc", "Ramp_s_rue": "Sí" }, "geometry": { "type": "Point", "coordinates": [ -99.130505558282493, 19.413400434769052, 0.0 ] } },
{ "type": "Feature", "properties": { "CVE_EST": "TROLE02I16", "circuito": null, "SISTEMA": "STE Trolebús", "NOMBRE": "Tlalpan", "TIPO": "Intermedia", "LINEA": "02", "ALCALDIAS": "Cuauhtémoc", "Ramp_s_rue": "Sí" }, "geometry": { "type": "Point", "coordinates": [ -99.133348030153115, 19.413320151532872, 0.0 ] } },
{ "type": "Feature", "properties": { "CVE_EST": "TROLE02I17", "circuito": null, "SISTEMA": "STE Trolebús", "NOMBRE": "5 de Febrero", "TIPO": "Intermedia", "LINEA": "02", "ALCALDIAS": "Cuauhtémoc", "Ramp_s_rue": "Sí" }, "geometry": { "type": "Point", "coordinates": [ -99.136883396122386, 19.414403580948264, 0.0 ] } },
{ "type": "Feature", "properties": { "CVE_EST": "TROLE02I18", "circuito": null, "SISTEMA": "STE Trolebús", "NOMBRE": "Isabel La  Católica", "TIPO": "Intermedia", "LINEA": "02", "ALCALDIAS": "Cuauhtémoc", "Ramp_s_rue": "Sí" }, "geometry": { "type": "Point", "coordinates": [ -99.13837452676114, 19.414843915969666, 0.0 ] } },
{ "type": "Feature", "properties": { "CVE_EST": "TROLE02I19", "circuito": null, "SISTEMA": "STE Trolebús", "NOMBRE": "Bolívar", "TIPO": "Intermedia", "LINEA": "02", "ALCALDIAS": "Cuauhtémoc", "Ramp_s_rue": "Sí" }, "geometry": { "type": "Point", "coordinates": [ -99.140860767493479, 19.415011140386824, 0.0 ] } },
{ "type": "Feature", "properties": { "CVE_EST": "TROLE02I20", "circuito": null, "SISTEMA": "STE Trolebús", "NOMBRE": "Eje Central", "TIPO": "Transbordo", "LINEA": "02", "ALCALDIAS": "Cuauhtémoc", "Ramp_s_rue": "Sí" }, "geometry": { "type": "Point", "coordinates": [ -99.143489270728622, 19.415187895977724, 0.0 ] } },
{ "type": "Feature", "properties": { "CVE_EST": "TROLE02I21", "circuito": null, "SISTEMA": "STE Trolebús", "NOMBRE": "Dr. Andrade", "TIPO": "Intermedia", "LINEA": "02", "ALCALDIAS": "Cuauhtémoc", "Ramp_s_rue": "Sí" }, "geometry": { "type": "Point", "coordinates": [ -99.146318352673688, 19.415398015536375, 0.0 ] } },
{ "type": "Feature", "properties": { "CVE_EST": "TROLE02I22", "circuito": null, "SISTEMA": "STE Trolebús", "NOMBRE": "Dr. Vértiz", "TIPO": "Intermedia", "LINEA": "02", "ALCALDIAS": "Cuauhtémoc", "Ramp_s_rue": "Sí" }, "geometry": { "type": "Point", "coordinates": [ -99.147845320222871, 19.415512425970569, 0.0 ] } },
{ "type": "Feature", "properties": { "CVE_EST": "TROLE02I23", "circuito": null, "SISTEMA": "STE Trolebús", "NOMBRE": "Niños Héroes", "TIPO": "Intermedia", "LINEA": "02", "ALCALDIAS": "Cuauhtémoc", "Ramp_s_rue": "Sí" }, "geometry": { "type": "Point", "coordinates": [ -99.150567148795346, 19.41571451957012, 0.0 ] } },
{ "type": "Feature", "properties": { "CVE_EST": "TROLE02I24", "circuito": null, "SISTEMA": "STE Trolebús", "NOMBRE": "Dr. Lucio", "TIPO": "Intermedia", "LINEA": "02", "ALCALDIAS": "Cuauhtémoc", "Ramp_s_rue": "Sí" }, "geometry": { "type": "Point", "coordinates": [ -99.152496743442825, 19.415857455328798, 0.0 ] } },
{ "type": "Feature", "properties": { "CVE_EST": "TROLE02I25", "circuito": null, "SISTEMA": "STE Trolebús", "NOMBRE": "Cuauhtémoc", "TIPO": "Intermedia", "LINEA": "02", "ALCALDIAS": "Cuauhtémoc", "Ramp_s_rue": "Sí" }, "geometry": { "type": "Point", "coordinates": [ -99.154893626225103, 19.415928629950056, 0.0 ] } },
{ "type": "Feature", "properties": { "CVE_EST": "TROLE02I26", "circuito": null, "SISTEMA": "STE Trolebús", "NOMBRE": "Mérida", "TIPO": "Intermedia", "LINEA": "02", "ALCALDIAS": "Cuauhtémoc", "Ramp_s_rue": "Sí" }, "geometry": { "type": "Point", "coordinates": [ -99.156403110502694, 19.415632351651091, 0.0 ] } },
{ "type": "Feature", "properties": { "CVE_EST": "TROLE02I27", "circuito": null, "SISTEMA": "STE Trolebús", "NOMBRE": "Orizaba", "TIPO": "Intermedia", "LINEA": "02", "ALCALDIAS": "Cuauhtémoc", "Ramp_s_rue": "Sí" }, "geometry": { "type": "Point", "coordinates": [ -99.158788224960645, 19.415164178825918, 0.0 ] } },
{ "type": "Feature", "properties": { "CVE_EST": "TROLE02I28", "circuito": null, "SISTEMA": "STE Trolebús", "NOMBRE": "Tonalá", "TIPO": "Intermedia", "LINEA": "02", "ALCALDIAS": "Cuauhtémoc", "Ramp_s_rue": "Sí" }, "geometry": { "type": "Point", "coordinates": [ -99.161646810185388, 19.41460302392758, 0.0 ] } },
{ "type": "Feature", "properties": { "CVE_EST": "TROLE02I29", "circuito": null, "SISTEMA": "STE Trolebús", "NOMBRE": "Monterrey", "TIPO": "Intermedia", "LINEA": "02", "ALCALDIAS": "Cuauhtémoc", "Ramp_s_rue": "Sí" }, "geometry": { "type": "Point", "coordinates": [ -99.162990178286833, 19.414339297046798, 0.0 ] } },
{ "type": "Feature", "properties": { "CVE_EST": "TROLE02I30", "circuito": null, "SISTEMA": "STE Trolebús", "NOMBRE": "Insurgentes", "TIPO": "Intermedia", "LINEA": "02", "ALCALDIAS": "Cuauhtémoc", "Ramp_s_rue": "Sí" }, "geometry": { "type": "Point", "coordinates": [ -99.165172828850373, 19.415495124478998, 0.0 ] } },
{ "type": "Feature", "properties": { "CVE_EST": "TROLE02I31", "circuito": null, "SISTEMA": "STE Trolebús", "NOMBRE": "Álvaro Obregón", "TIPO": "Intermedia", "LINEA": "02", "ALCALDIAS": "Cuauhtémoc", "Ramp_s_rue": "Sí" }, "geometry": { "type": "Point", "coordinates": [ -99.166996911147876, 19.416570509079751, 0.0 ] } },
{ "type": "Feature", "properties": { "CVE_EST": "TROLE02I32", "circuito": null, "SISTEMA": "STE Trolebús", "NOMBRE": "Sonora", "TIPO": "Intermedia", "LINEA": "02", "ALCALDIAS": "Cuauhtémoc", "Ramp_s_rue": "Sí" }, "geometry": { "type": "Point", "coordinates": [ -99.169836236539865, 19.416115615019322, 0.0 ] } },
{ "type": "Feature", "properties": { "CVE_EST": "TROLE02I33", "circuito": null, "SISTEMA": "STE Trolebús", "NOMBRE": "Durango", "TIPO": "Intermedia", "LINEA": "02", "ALCALDIAS": "Cuauhtémoc", "Ramp_s_rue": "Sí" }, "geometry": { "type": "Point", "coordinates": [ -99.171906813966714, 19.418516107042485, 0.0 ] } },
{ "type": "Feature", "properties": { "CVE_EST": "TROLE02I34", "circuito": null, "SISTEMA": "STE Trolebús", "NOMBRE": "Chapultepec", "TIPO": "Terminal / Transbordo", "LINEA": "02", "ALCALDIAS": "Cuauhtémoc", "Ramp_s_rue": "Sí" }, "geometry": { "type": "Point", "coordinates": [ -99.175365536553201, 19.420542481071873, 0.0 ] } },
{ "type": "Feature", "properties": { "CVE_EST": "TROLE02R01", "circuito": null, "SISTEMA": "STE Trolebús", "NOMBRE": "Sinaloa", "TIPO": "Intermedia", "LINEA": "02", "ALCALDIAS": "Cuauhtémoc", "Ramp_s_rue": "Sí" }, "geometry": { "type": "Point", "coordinates": [ -99.173312382566621, 19.419431551820068, 0.0 ] } },
{ "type": "Feature", "properties": { "CVE_EST": "TROLE02R02", "circuito": null, "SISTEMA": "STE Trolebús", "NOMBRE": "Parque España", "TIPO": "Intermedia", "LINEA": "02", "ALCALDIAS": "Cuauhtémoc", "Ramp_s_rue": "Sí" }, "geometry": { "type": "Point", "coordinates": [ -99.170637992118657, 19.416660273569946, 0.0 ] } },
{ "type": "Feature", "properties": { "CVE_EST": "TROLE02R03", "circuito": null, "SISTEMA": "STE Trolebús", "NOMBRE": "Álvaro Obregón", "TIPO": "Intermedia", "LINEA": "02", "ALCALDIAS": "Cuauhtémoc", "Ramp_s_rue": "Sí" }, "geometry": { "type": "Point", "coordinates": [ -99.16763269162908, 19.416606233919794, 0.0 ] } },
{ "type": "Feature", "properties": { "CVE_EST": "TROLE02R04", "circuito": null, "SISTEMA": "STE Trolebús", "NOMBRE": "Insurgentes", "TIPO": "Intermedia", "LINEA": "02", "ALCALDIAS": "Cuauhtémoc", "Ramp_s_rue": "Sí" }, "geometry": { "type": "Point", "coordinates": [ -99.165847362783936, 19.415744787600012, 0.0 ] } },
{ "type": "Feature", "properties": { "CVE_EST": "TROLE02R05", "circuito": null, "SISTEMA": "STE Trolebús", "NOMBRE": "Querétaro", "TIPO": "Intermedia", "LINEA": "02", "ALCALDIAS": "Cuauhtémoc", "Ramp_s_rue": "Sí" }, "geometry": { "type": "Point", "coordinates": [ -99.163667120646068, 19.414463844392024, 0.0 ] } },
{ "type": "Feature", "properties": { "CVE_EST": "TROLE02R06", "circuito": null, "SISTEMA": "STE Trolebús", "NOMBRE": "Tonalá", "TIPO": "Intermedia", "LINEA": "02", "ALCALDIAS": "Cuauhtémoc", "Ramp_s_rue": "Sí" }, "geometry": { "type": "Point", "coordinates": [ -99.161713067016763, 19.413663474709434, 0.0 ] } },
{ "type": "Feature", "properties": { "CVE_EST": "TROLE02R07", "circuito": null, "SISTEMA": "STE Trolebús", "NOMBRE": "Orizaba", "TIPO": "Intermedia", "LINEA": "02", "ALCALDIAS": "Cuauhtémoc", "Ramp_s_rue": "Sí" }, "geometry": { "type": "Point", "coordinates": [ -99.158877145678616, 19.414222380771051, 0.0 ] } },
{ "type": "Feature", "properties": { "CVE_EST": "TROLE02R08", "circuito": null, "SISTEMA": "STE Trolebús", "NOMBRE": "Mérida", "TIPO": "Intermedia", "LINEA": "02", "ALCALDIAS": "Cuauhtémoc", "Ramp_s_rue": "Sí" }, "geometry": { "type": "Point", "coordinates": [ -99.156510136233379, 19.414688318264165, 0.0 ] } },
{ "type": "Feature", "properties": { "CVE_EST": "TROLE02R09", "circuito": null, "SISTEMA": "STE Trolebús", "NOMBRE": "Cuauhtémoc", "TIPO": "Intermedia", "LINEA": "02", "ALCALDIAS": "Cuauhtémoc", "Ramp_s_rue": "Sí" }, "geometry": { "type": "Point", "coordinates": [ -99.155039289518584, 19.414975320670411, 0.0 ] } },
{ "type": "Feature", "properties": { "CVE_EST": "TROLE02R10", "circuito": null, "SISTEMA": "STE Trolebús", "NOMBRE": "Dr. Lucio", "TIPO": "Intermedia", "LINEA": "02", "ALCALDIAS": "Cuauhtémoc", "Ramp_s_rue": "Sí" }, "geometry": { "type": "Point", "coordinates": [ -99.153076096378641, 19.414945130698573, 0.0 ] } },
{ "type": "Feature", "properties": { "CVE_EST": "TROLE02R11", "circuito": null, "SISTEMA": "STE Trolebús", "NOMBRE": "Dr. Jiménez", "TIPO": "Intermedia", "LINEA": "02", "ALCALDIAS": "Cuauhtémoc", "Ramp_s_rue": "Sí" }, "geometry": { "type": "Point", "coordinates": [ -99.149990559821077, 19.414704605858173, 0.0 ] } },
{ "type": "Feature", "properties": { "CVE_EST": "TROLE02R12", "circuito": null, "SISTEMA": "STE Trolebús", "NOMBRE": "Dr. Vértiz", "TIPO": "Intermedia", "LINEA": "02", "ALCALDIAS": "Cuauhtémoc", "Ramp_s_rue": "Sí" }, "geometry": { "type": "Point", "coordinates": [ -99.148535008187082, 19.414601030667423, 0.0 ] } },
{ "type": "Feature", "properties": { "CVE_EST": "TROLE02R13", "circuito": null, "SISTEMA": "STE Trolebús", "NOMBRE": "Dr. Andrade", "TIPO": "Intermedia", "LINEA": "02", "ALCALDIAS": "Cuauhtémoc", "Ramp_s_rue": "Sí" }, "geometry": { "type": "Point", "coordinates": [ -99.146873068959422, 19.414476348806833, 0.0 ] } },
{ "type": "Feature", "properties": { "CVE_EST": "TROLE02R14", "circuito": null, "SISTEMA": "STE Trolebús", "NOMBRE": "Eje Central", "TIPO": "Transbordo", "LINEA": "02", "ALCALDIAS": "Cuauhtémoc", "Ramp_s_rue": "Sí" }, "geometry": { "type": "Point", "coordinates": [ -99.14414021629571, 19.414270015679254, 0.0 ] } },
{ "type": "Feature", "properties": { "CVE_EST": "TROLE02R15", "circuito": null, "SISTEMA": "STE Trolebús", "NOMBRE": "Bolívar", "TIPO": "Intermedia", "LINEA": "02", "ALCALDIAS": "Cuauhtémoc", "Ramp_s_rue": "Sí" }, "geometry": { "type": "Point", "coordinates": [ -99.141411954295151, 19.414063987599256, 0.0 ] } },
{ "type": "Feature", "properties": { "CVE_EST": "TROLE02R16", "circuito": null, "SISTEMA": "STE Trolebús", "NOMBRE": "Isabel La Católica", "TIPO": "Intermedia", "LINEA": "02", "ALCALDIAS": "Cuauhtémoc", "Ramp_s_rue": "Sí" }, "geometry": { "type": "Point", "coordinates": [ -99.13903271231365, 19.413882768829151, 0.0 ] } },
{ "type": "Feature", "properties": { "CVE_EST": "TROLE02R17", "circuito": null, "SISTEMA": "STE Trolebús", "NOMBRE": "5 de Febrero", "TIPO": "Intermedia", "LINEA": "02", "ALCALDIAS": "Cuauhtémoc", "Ramp_s_rue": "Sí" }, "geometry": { "type": "Point", "coordinates": [ -99.137034630766038, 19.413730527858924, 0.0 ] } },
{ "type": "Feature", "properties": { "CVE_EST": "TROLE02R18", "circuito": null, "SISTEMA": "STE Trolebús", "NOMBRE": "José Antonio Torres", "TIPO": "Intermedia", "LINEA": "02", "ALCALDIAS": "Cuauhtémoc", "Ramp_s_rue": "Sí" }, "geometry": { "type": "Point", "coordinates": [ -99.132492676396367, 19.412033270031881, 0.0 ] } },
{ "type": "Feature", "properties": { "CVE_EST": "TROLE02R19", "circuito": null, "SISTEMA": "STE Trolebús", "NOMBRE": "Clavijero", "TIPO": "Intermedia", "LINEA": "02", "ALCALDIAS": "Cuauhtémoc", "Ramp_s_rue": "Sí" }, "geometry": { "type": "Point", "coordinates": [ -99.131031402174045, 19.412021803327331, 0.0 ] } },
{ "type": "Feature", "properties": { "CVE_EST": "TROLE02R20", "circuito": null, "SISTEMA": "STE Trolebús", "NOMBRE": "Calzada de La Viga", "TIPO": "Intermedia", "LINEA": "02", "ALCALDIAS": "Cuauhtémoc", "Ramp_s_rue": "Sí" }, "geometry": { "type": "Point", "coordinates": [ -99.128839898241168, 19.4133476006146, 0.0 ] } },
{ "type": "Feature", "properties": { "CVE_EST": "TROLE02R21", "circuito": null, "SISTEMA": "STE Trolebús", "NOMBRE": "Callejón Resurrección", "TIPO": "Intermedia", "LINEA": "02", "ALCALDIAS": "Venustiano Carranza", "Ramp_s_rue": "Sí" }, "geometry": { "type": "Point", "coordinates": [ -99.126170445853404, 19.413480334432009, 0.0 ] } },
{ "type": "Feature", "properties": { "CVE_EST": "TROLE02R22", "circuito": null, "SISTEMA": "STE Trolebús", "NOMBRE": "Torno", "TIPO": "Intermedia", "LINEA": "02", "ALCALDIAS": "Venustiano Carranza", "Ramp_s_rue": "Sí" }, "geometry": { "type": "Point", "coordinates": [ -99.124594151485198, 19.413536054080691, 0.0 ] } },
{ "type": "Feature", "properties": { "CVE_EST": "TROLE02R23", "circuito": null, "SISTEMA": "STE Trolebús", "NOMBRE": "Congreso de la Unión", "TIPO": "Intermedia", "LINEA": "02", "ALCALDIAS": "Venustiano Carranza", "Ramp_s_rue": "Sí" }, "geometry": { "type": "Point", "coordinates": [ -99.122030537079596, 19.413626932552916, 0.0 ] } },
{ "type": "Feature", "properties": { "CVE_EST": "TROLE02R24", "circuito": null, "SISTEMA": "STE Trolebús", "NOMBRE": "Cucurpe", "TIPO": "Intermedia", "LINEA": "02", "ALCALDIAS": "Venustiano Carranza", "Ramp_s_rue": "Sí" }, "geometry": { "type": "Point", "coordinates": [ -99.117931523394802, 19.413884734013791, 0.0 ] } },
{ "type": "Feature", "properties": { "CVE_EST": "TROLE02R25", "circuito": null, "SISTEMA": "STE Trolebús", "NOMBRE": "Aconchi", "TIPO": "Intermedia", "LINEA": "02", "ALCALDIAS": "Venustiano Carranza", "Ramp_s_rue": "Sí" }, "geometry": { "type": "Point", "coordinates": [ -99.115985156930947, 19.413971990123141, 0.0 ] } },
{ "type": "Feature", "properties": { "CVE_EST": "TROLE02R26", "circuito": null, "SISTEMA": "STE Trolebús", "NOMBRE": "Antonio Peña y Reyes", "TIPO": "Intermedia", "LINEA": "02", "ALCALDIAS": "Venustiano Carranza", "Ramp_s_rue": "Sí" }, "geometry": { "type": "Point", "coordinates": [ -99.10898670033832, 19.413260113162877, 0.0 ] } },
{ "type": "Feature", "properties": { "CVE_EST": "TROLE02R27", "circuito": null, "SISTEMA": "STE Trolebús", "NOMBRE": "Fernando Iglesias", "TIPO": "Intermedia", "LINEA": "02", "ALCALDIAS": "Venustiano Carranza", "Ramp_s_rue": "Sí" }, "geometry": { "type": "Point", "coordinates": [ -99.106195723291094, 19.412974474772575, 0.0 ] } },
{ "type": "Feature", "properties": { "CVE_EST": "TROLE02R28", "circuito": null, "SISTEMA": "STE Trolebús", "NOMBRE": "Retorno 39", "TIPO": "Intermedia", "LINEA": "02", "ALCALDIAS": "Venustiano Carranza", "Ramp_s_rue": "Sí" }, "geometry": { "type": "Point", "coordinates": [ -99.10322162970526, 19.412189479851968, 0.0 ] } },
{ "type": "Feature", "properties": { "CVE_EST": "TROLE02R29", "circuito": null, "SISTEMA": "STE Trolebús", "NOMBRE": "Genaro García", "TIPO": "Intermedia", "LINEA": "02", "ALCALDIAS": "Venustiano Carranza", "Ramp_s_rue": "Sí" }, "geometry": { "type": "Point", "coordinates": [ -99.101298256507107, 19.411393198133133, 0.0 ] } },
{ "type": "Feature", "properties": { "CVE_EST": "TROLE02R30", "circuito": null, "SISTEMA": "STE Trolebús", "NOMBRE": "Ramadés Treviño", "TIPO": "Transbordo", "LINEA": "02", "ALCALDIAS": "Venustiano Carranza", "Ramp_s_rue": "Sí" }, "geometry": { "type": "Point", "coordinates": [ -99.103364319242658, 19.4112170759668, 0.0 ] } },
{ "type": "Feature", "properties": { "CVE_EST": "TROLE03I01", "circuito": null, "SISTEMA": "STE Trolebús", "NOMBRE": "Museo de Transportes Eléctricos", "TIPO": "Terminal", "LINEA": "03", "ALCALDIAS": "Iztapalapa", "Ramp_s_rue": "Sí" }, "geometry": { "type": "Point", "coordinates": [ -99.133279131520553, 19.366429157461329, 0.0 ] } },
{ "type": "Feature", "properties": { "CVE_EST": "TROLE03I02", "circuito": null, "SISTEMA": "STE Trolebús", "NOMBRE": "Plutarco Elías Calles", "TIPO": "Intermedia", "LINEA": "03", "ALCALDIAS": "Iztapalapa", "Ramp_s_rue": "Sí" }, "geometry": { "type": "Point", "coordinates": [ -99.137243459063271, 19.367197514694716, 0.0 ] } },
{ "type": "Feature", "properties": { "CVE_EST": "TROLE03I03", "circuito": null, "SISTEMA": "STE Trolebús", "NOMBRE": "Miravalle", "TIPO": "Intermedia", "LINEA": "03", "ALCALDIAS": "Benito Juárez", "Ramp_s_rue": "Sí" }, "geometry": { "type": "Point", "coordinates": [ -99.139138073442012, 19.367544580407575, 0.0 ] } },
{ "type": "Feature", "properties": { "CVE_EST": "TROLE03I04", "circuito": null, "SISTEMA": "STE Trolebús", "NOMBRE": "Bélgica", "TIPO": "Intermedia", "LINEA": "03", "ALCALDIAS": "Benito Juárez", "Ramp_s_rue": "Sí" }, "geometry": { "type": "Point", "coordinates": [ -99.144859917537104, 19.368515233456819, 0.0 ] } },
{ "type": "Feature", "properties": { "CVE_EST": "TROLE03I05", "circuito": null, "SISTEMA": "STE Trolebús", "NOMBRE": "Eje Central", "TIPO": "Transbordo", "LINEA": "03", "ALCALDIAS": "Benito Juárez", "Ramp_s_rue": "Sí" }, "geometry": { "type": "Point", "coordinates": [ -99.149612988109439, 19.369265684960652, 0.0 ] } },
{ "type": "Feature", "properties": { "CVE_EST": "TROLE03I06", "circuito": null, "SISTEMA": "STE Trolebús", "NOMBRE": "Tokio", "TIPO": "Intermedia", "LINEA": "03", "ALCALDIAS": "Benito Juárez", "Ramp_s_rue": "Sí" }, "geometry": { "type": "Point", "coordinates": [ -99.152410168532001, 19.369698883805164, 0.0 ] } },
{ "type": "Feature", "properties": { "CVE_EST": "TROLE03I07", "circuito": null, "SISTEMA": "STE Trolebús", "NOMBRE": "Dr. Vertiz", "TIPO": "Intermedia", "LINEA": "03", "ALCALDIAS": "Benito Juárez", "Ramp_s_rue": "Sí" }, "geometry": { "type": "Point", "coordinates": [ -99.154842093584691, 19.370074948505259, 0.0 ] } },
{ "type": "Feature", "properties": { "CVE_EST": "TROLE03I08", "circuito": null, "SISTEMA": "STE Trolebús", "NOMBRE": "División del Norte", "TIPO": "Intermedia", "LINEA": "03", "ALCALDIAS": "Benito Juárez", "Ramp_s_rue": "Sí" }, "geometry": { "type": "Point", "coordinates": [ -99.156431680349939, 19.370320738327521, 0.0 ] } },
{ "type": "Feature", "properties": { "CVE_EST": "TROLE03I09", "circuito": null, "SISTEMA": "STE Trolebús", "NOMBRE": "Parque de Los Venados", "TIPO": "Intermedia", "LINEA": "03", "ALCALDIAS": "Benito Juárez", "Ramp_s_rue": "Sí" }, "geometry": { "type": "Point", "coordinates": [ -99.158497399128635, 19.370652227308195, 0.0 ] } },
{ "type": "Feature", "properties": { "CVE_EST": "TROLE03I10", "circuito": null, "SISTEMA": "STE Trolebús", "NOMBRE": "Cuauhtémoc", "TIPO": "Intermedia", "LINEA": "03", "ALCALDIAS": "Benito Juárez", "Ramp_s_rue": "Sí" },